"@lat"	"@lon"	"name"	"type"
"45.1140957"	"2.6717462"	"Pas de Peyrol"	"attraction"
"45.0590336"	"2.7613395"	"Plomb du Cantal"	"viewpoint"
"49.2104029"	"-2.1539490"	"Jersey War Tunnels"	"museum"
"49.2291856"	"-2.2343313"	"Channel Islands Military Museum"	"museum"
"41.5570474"	"8.8868069"	"Palaghju"	"archaeological_site"
"41.5570474"	"8.8868069"	"Palaghju"	"attraction"
"45.7464306"	"4.8359519"	"Centre d'Histoire de la Résistance et de la Déportation"	"museum"
"45.8270835"	"6.2861287"	"La Tournette"	"viewpoint"
"43.4805282"	"6.9116664"	"Col Notre-Dame"	"viewpoint"
"43.4964590"	"6.9175550"	"Col du Trayas"	"viewpoint"
"48.8430243"	"-1.5925653"	"Musée Christian Dior"	"attraction"
"47.2680167"	"-2.1697193"	"Musée de la Marine"	"museum"
"48.6106722"	"7.4314295"	"Geierstein"	"attraction"
"48.6011937"	"7.2869446"	"Schneeberg"	"attraction"
"48.4349014"	"7.4039763"	"Source Sainte-Odile"	"attraction"
"41.3878259"	"9.1606179"	"Bonifacio"	"attraction"
"49.0521973"	"7.9563025"	"Deutsches Weintor"	"attraction"
"44.0714689"	"3.9800019"	"Bambouseraie d'Anduze"	"museum"
"48.8191631"	"2.1129005"	"Le hameau de la reine"	"attraction"
"48.8570374"	"2.3118779"	"Musée de l'Armée"	"museum"
"43.2945804"	"5.3692811"	"Vieux-Port"	"attraction"
"48.3606033"	"2.7522393"	"Haut Mont"	"viewpoint"
"48.5791319"	"7.7506043"	"Musée Alsacien"	"museum"
"48.5807532"	"7.7523558"	"Musée des arts décoratifs"	"museum"
"49.0406536"	"3.9716185"	"Mercier"	"attraction"
"48.9068263"	"4.0142170"	"Serge Jumel"	"attraction"
"43.5633391"	"6.9816794"	"Belvédère du Maquis"	"viewpoint"
"45.4694622"	"4.3742124"	"Musée d'art moderne"	"museum"
"49.7121329"	"-1.8965808"	"Port Racine"	"attraction"
"48.0867981"	"-1.6535800"	"Tours Aunis et Navarre"	"attraction"
"48.0865722"	"-1.6531181"	"Jardin de Spolette"	"attraction"
"43.6023148"	"1.4431296"	"Musée du Vieux Toulouse"	"museum"
"48.8643016"	"2.3480523"	"Tour de Jean-sans-Peur"	"castle"
"48.8643016"	"2.3480523"	"Tour de Jean-sans-Peur"	"museum"
"47.5885317"	"7.5897727"	"Dreiländereck"	"attraction"
"47.5826379"	"7.5894323"	"Verkehrsdrehscheibe Schweiz"	"museum"
"48.8864800"	"2.3399022"	"Espace Dali"	"museum"
"48.8957518"	"2.3879761"	"Cité des Sciences et de l'Industrie"	"museum"
"48.8547934"	"2.3662431"	"Maison de Victor Hugo"	"museum"
"48.0598184"	"7.2692211"	"Château de Hohlandsbourg"	"castle"
"48.0598184"	"7.2692211"	"Château de Hohlandsbourg"	"attraction"
"45.5189518"	"6.0581867"	"Belvédére du Rocher de Manettaz"	"viewpoint"
"49.1935679"	"2.4790750"	"Musée vivant du cheval"	"museum"
"45.8422221"	"6.1276818"	"Croix des Cessenaz"	"wayside_cross"
"45.8422221"	"6.1276818"	"Croix des Cessenaz"	"viewpoint"
"49.1261113"	"7.0771115"	"Moulin de la Blies"	"attraction"
"45.5688950"	"5.9178798"	"Statue de Jeanne-d'Arc à la Savoie"	"memorial"
"45.5688950"	"5.9178798"	"Statue de Jeanne-d'Arc à la Savoie"	"attraction"
"49.3751823"	"-0.9086043"	"DDay Omaha Beach"	"museum"
"45.1342675"	"6.8450220"	"Colle Sommeiler"	"viewpoint"
"46.3217449"	"1.8265163"	"La Tuilerie de Pouligny"	"attraction"
"43.7541893"	"3.2834754"	"L'eau des Vallées"	"viewpoint"
"43.7652056"	"7.4591818"	"Vieux village de Roquebrune"	"attraction"
"49.4862105"	"-2.5438178"	"Guernsey Freesia Centre"	"attraction"
"49.4381280"	"-2.3682318"	"Window in the Rock"	"viewpoint"
"49.4377327"	"-2.3625790"	"La Seigneurie"	"attraction"
"49.4424197"	"-2.5773476"	"German Military Underground Hospital"	"attraction"
"47.4760289"	"7.4921952"	"Kloster Mariastein"	"attraction"
"48.4600505"	"-5.1104310"	"Maisons du Niou"	"museum"
"49.5963611"	"0.6765317"	"Chêne d'Allouville"	"attraction"
"48.3412260"	"-4.5338073"	"Pointe des Espagnols"	"viewpoint"
"49.4607826"	"6.0229017"	"Musée national des Mines"	"museum"
"44.8409508"	"-0.5698120"	"Musée national des Douanes"	"museum"
"48.7376392"	"-0.5999793"	"Lavoir"	"attraction"
"48.2560347"	"7.3868057"	"Volerie des Aigles"	"attraction"
"42.4849330"	"2.7497314"	"Musée des instruments"	"museum"
"44.7851773"	"6.5535004"	"Musée des Mines d'argent"	"museum"
"48.0832956"	"7.0521171"	"Le Tanet"	"viewpoint"
"48.7675523"	"-3.0190622"	"Abbaye de Beauport"	"abbey"
"48.7675523"	"-3.0190622"	"Abbaye de Beauport"	"attraction"
"48.8654493"	"-2.9858873"	"Le phare du Paon"	"viewpoint"
"45.0273481"	"5.4606029"	"La Vierge du Vercors"	"attraction"
"43.8381998"	"5.0886675"	"Roue à aubes"	"attraction"
"45.5336788"	"5.9310039"	"Point de vue du Bec du Corbeau"	"viewpoint"
"48.2559885"	"-4.6217373"	"Pointe de Pen-Hir"	"viewpoint"
"48.4238942"	"7.2589280"	"Cascades de la Serva"	"attraction"
"49.0667497"	"7.8093036"	"Erzgrube Sankt Anna Stollen"	"mine"
"49.0667497"	"7.8093036"	"Erzgrube Sankt Anna Stollen"	"museum"
"45.2484587"	"4.8705259"	"La Tour d'Albon"	"ruins"
"45.2484587"	"4.8705259"	"La Tour d'Albon"	"viewpoint"
"48.5696709"	"4.7054466"	"Port de Chantecoq"	"viewpoint"
"48.6511273"	"-2.3001228"	"Port Saint-Géran"	"viewpoint"
"44.9890919"	"1.0685994"	"La Roque Saint-Christophe"	"attraction"
"47.9579270"	"-3.3602515"	"Hameau médiéval de Pontkalleg"	"archaeological_site"
"47.9579270"	"-3.3602515"	"Hameau médiéval de Pontkalleg"	"attraction"
"48.3025049"	"7.7054042"	"bird watching"	"viewpoint"
"42.3216174"	"9.1118517"	"Arche de Corte"	"attraction"
"44.6029445"	"5.4605124"	"Le Claps"	"attraction"
"48.4833763"	"6.9556724"	"Chapelotte"	"attraction"
"45.4126227"	"6.1874910"	"Point de vue vers le Mont Blanc"	"viewpoint"
"47.8486434"	"6.9246642"	"Col des Perches"	"viewpoint"
"43.5539219"	"5.6038441"	"Château de Vauvenargues"	"castle"
"43.5539219"	"5.6038441"	"Château de Vauvenargues"	"attraction"
"43.0356467"	"6.0925603"	"Pointe des Chevaliers"	"viewpoint"
"42.4818294"	"8.8648230"	"Promontoire d'Arghjova"	"viewpoint"
"43.9527473"	"4.8063438"	"Musée du Petit Palais"	"museum"
"48.0944929"	"-4.4629023"	"Moulin de Keriolet"	"attraction"
"48.0650291"	"-4.6897535"	"Pointe de Castelmeur"	"viewpoint"
"49.4181625"	"1.9375206"	"Chêne Notre-Dame"	"monument"
"49.4181625"	"1.9375206"	"Chêne Notre-Dame"	"attraction"
"45.9728909"	"4.3308213"	"Barthélémy Thimonier"	"museum"
"49.4162751"	"1.9231921"	"Salle polyvalente"	"attraction"
"48.6469400"	"-2.4638765"	"Le Portuais"	"viewpoint"
"47.1748265"	"4.9552152"	"Château de Clos-Vougeot"	"castle"
"47.1748265"	"4.9552152"	"Château de Clos-Vougeot"	"attraction"
"42.5863884"	"2.3675700"	"Cova Bastera"	"attraction"
"46.9147266"	"6.4299472"	"Le Grand Taureau"	"viewpoint"
"50.0344347"	"2.2813213"	"Cité souterraine de Naours"	"museum"
"47.5876375"	"7.5892988"	"Dreiländereck"	"attraction"
"47.8370545"	"-3.3938862"	"Odyssaum"	"attraction"
"48.0351900"	"2.7933909"	"Maison de la forêt"	"museum"
"48.8551205"	"2.3589562"	"Maison Européenne de la Photographie"	"museum"
"48.8695018"	"2.3546892"	"Musée de l'Eventail"	"museum"
"44.8906371"	"0.9346532"	"Gouffre de Proumeyssac"	"attraction"
"48.8521855"	"2.3472903"	"Plus Vieil Arbre de Paris"	"attraction"
"42.4813065"	"1.9051542"	"Dolmen de Brangolí"	"archaeological_site"
"42.4813065"	"1.9051542"	"Dolmen de Brangolí"	"attraction"
"42.5831428"	"2.4178880"	"Tour de Cours"	"yes"
"42.5831428"	"2.4178880"	"Tour de Cours"	"attraction"
"47.2075490"	"2.7153094"	"La Belle Pierre"	"viewpoint"
"46.2480304"	"5.9581476"	"Tiocan"	"viewpoint"
"48.4380346"	"7.3987856"	"Porte Romaine"	"archaeological_site"
"48.4380346"	"7.3987856"	"Porte Romaine"	"attraction"
"49.7616776"	"0.3682550"	"Musée des Pêcheries"	"museum"
"47.7921037"	"-4.2923643"	"Site Pointe de Men Meur"	"viewpoint"
"47.7457898"	"7.3384212"	"Musée des Beaux-Arts"	"museum"
"43.7361735"	"-1.1684183"	"La Pierre de Tinon"	"boundary_stone"
"43.7361735"	"-1.1684183"	"La Pierre de Tinon"	"attraction"
"47.4689466"	"-0.5536400"	"Tour Saint-Aubin"	"attraction"
"47.8011918"	"-4.2645757"	"La Vierge"	"wayside_shrine"
"47.8011918"	"-4.2645757"	"La Vierge"	"attraction"
"45.7442509"	"4.2195524"	"Musée Dassier"	"museum"
"46.4218456"	"-0.8165242"	"Vue sur le Marais"	"viewpoint"
"45.0298867"	"3.5946502"	"Les Orgues de Prades"	"attraction"
"49.8661124"	"2.5171492"	"Franco Australian Museum"	"museum"
"47.7930794"	"-4.2834941"	"Haliotika"	"museum"
"47.3260105"	"-0.3361130"	"Pins Parasol"	"viewpoint"
"45.8840586"	"6.1264335"	"Belvédère de la Jeanne"	"viewpoint"
"47.7958744"	"-4.2453141"	"Menhir"	"attraction"
"44.0330170"	"5.9859493"	"Les Mées"	"viewpoint"
"45.2754218"	"6.0410586"	"Pincerie"	"viewpoint"
"45.2535089"	"4.6476947"	"Montmiandon"	"viewpoint"
"42.9542831"	"2.9761949"	"Chapelle Saint-Pancrace"	"attraction"
"45.7644654"	"6.0566975"	"Pont de l'Abîme"	"viewpoint"
"45.8757170"	"6.1348413"	"Croix de Chuguet"	"wayside_cross"
"45.8757170"	"6.1348413"	"Croix de Chuguet"	"viewpoint"
"47.0222889"	"4.8368201"	"Hôtel-Dieu"	"museum"
"47.0233479"	"4.8373060"	"Musée du vin"	"museum"
"47.1996524"	"-1.5745548"	"Pointe Ouest de l'Île de Nantes"	"viewpoint"
"47.2060317"	"-1.5640668"	"Galerie des Machines de l’île"	"attraction"
"47.2061287"	"-1.5645343"	"Voyage en Éléphant"	"attraction"
"48.6566467"	"2.4929611"	"La faisanderie"	"attraction"
"49.0299343"	"5.6477476"	"Panorama"	"viewpoint"
"43.4192781"	"2.6224616"	"Roc Suzadou"	"viewpoint"
"49.1653890"	"6.7905976"	"Aussichtsplattform Carrière Freyming"	"viewpoint"
"47.2358285"	"6.0268677"	"Musée du Temps"	"museum"
"45.0478759"	"-0.5985721"	"Panorama du Bec d'Ambes"	"viewpoint"
"44.8497100"	"0.4837602"	"Musée du Tabac"	"museum"
"47.7995043"	"-4.3371580"	"Anciens Fours à goémon"	"attraction"
"49.0427110"	"5.6617809"	"Écomusée"	"museum"
"47.3392698"	"6.3671252"	"Croix de Châtard"	"viewpoint"
"48.3799552"	"-3.3922868"	"Menhirs Jumeaux"	"archaeological_site"
"48.3799552"	"-3.3922868"	"Menhirs Jumeaux"	"attraction"
"47.0214963"	"4.8398035"	"Musée des Beaux Arts"	"museum"
"47.3482699"	"6.3824768"	"Lonot"	"viewpoint"
"43.3692008"	"6.0210181"	"L'Amarron"	"viewpoint"
"42.7273259"	"2.6973279"	"Força Réal"	"viewpoint"
"48.0103978"	"6.7551094"	"Saut du Bouchot"	"attraction"
"50.8757083"	"1.6487251"	"Point de vue de la Motte du Bourg"	"viewpoint"
"47.1384746"	"5.8364011"	"Grotte d’Osselle"	"attraction"
"49.0591902"	"7.3715526"	"Simserhof (Ligne Maginot)"	"ruins"
"49.0591902"	"7.3715526"	"Simserhof (Ligne Maginot)"	"attraction"
"43.3553935"	"2.6806735"	"Gorges de la Cesse"	"viewpoint"
"47.0023416"	"4.7774786"	"Statue Vierge Marie"	"wayside_shrine"
"47.0023416"	"4.7774786"	"Statue Vierge Marie"	"attraction"
"43.7440483"	"4.7922127"	"Lavoir"	"attraction"
"43.1869927"	"2.0370062"	"Le Seignadou"	"viewpoint"
"47.7982722"	"-4.3499886"	"Ancien Four à Goémon"	"attraction"
"46.8779340"	"-2.1262187"	"Belvédère du Pey de la Blet"	"viewpoint"
"45.0722069"	"2.5982043"	"Puy de Barrierou"	"viewpoint"
"49.4923688"	"5.9758920"	"Musée National de la Résistance"	"museum"
"44.0880082"	"2.9036201"	"Aire de Montjaux"	"viewpoint"
"43.9587501"	"0.3720146"	"Musee de l'Armagnac"	"museum"
"43.4405767"	"2.5214950"	"mémorial des aviateurs"	"memorial"
"43.4405767"	"2.5214950"	"mémorial des aviateurs"	"viewpoint"
"46.3020780"	"6.0263397"	"Sources de l'Allondon"	"viewpoint"
"48.8373208"	"-0.8991192"	"Vaux de Vire"	"viewpoint"
"44.7615928"	"-1.1423901"	"Ovniport d'Arès (Acceuil des Martiens)"	"attraction"
"46.2648215"	"5.8693172"	"Borne frontière"	"milestone"
"46.2648215"	"5.8693172"	"Borne frontière"	"attraction"
"48.8957352"	"2.3886935"	"Cité des Enfants (5-12 ans)"	"museum"
"48.9532012"	"7.8428540"	"Le plus vieux forage de pétrole au monde"	"attraction"
"44.0459632"	"5.3318170"	"Belvedere de Castellaras"	"viewpoint"
"45.0318662"	"-1.1427631"	"Belvédère du Cousseau"	"viewpoint"
"47.9626544"	"6.7339076"	"Cascade du Mainqueyon"	"attraction"
"45.8648214"	"5.7743454"	"Point de vue du Fenestrez"	"viewpoint"
"46.6842431"	"-0.4143322"	"Nombril du Monde"	"attraction"
"44.1748018"	"6.2384864"	"Ichtyosaure fossilisé"	"attraction"
"43.9142224"	"5.4963859"	"Le Colorado Provençal"	"attraction"
"45.8603621"	"6.1313960"	"Croix du Chef-Lieu"	"wayside_cross"
"45.8603621"	"6.1313960"	"Croix du Chef-Lieu"	"viewpoint"
"45.0727812"	"5.3979790"	"Grotte de Choranche"	"attraction"
"42.8028786"	"-0.5450279"	"Route Géologique Transpyrénéenne"	"attraction"
"48.0736737"	"-1.7156678"	"Guérite allemande 1939-1945"	"attraction"
"44.3820689"	"4.4164436"	"Le Pont d'Arc"	"attraction"
"47.8147949"	"7.1013501"	"L'Œil de la Sorcière"	"attraction"
"50.3469831"	"1.8209867"	"Les Jardins de Valloires"	"attraction"
"48.0097702"	"6.9826891"	"Rainkopf"	"viewpoint"
"46.8678483"	"5.8094592"	"Belvédère du Fer à Cheval"	"viewpoint"
"43.3046227"	"-0.3749806"	"Musée de la Résistance et de la Déportation"	"museum"
"43.2948750"	"-0.3754333"	"Musée National du Château de Pau"	"museum"
"43.3462411"	"-0.3871105"	"Musée des parachutistes"	"museum"
"43.2945521"	"-0.3625409"	"Exposition permanente « Pau, terre d’aviation »"	"museum"
"43.2351865"	"0.0678399"	"Musée de la Résistance et de la Déportation"	"museum"
"42.1609444"	"9.0813920"	"Passarella de Tolla"	"attraction"
"46.9654133"	"6.0112883"	"Source du Lison"	"attraction"
"43.0916173"	"2.9797935"	"Étang du Doul"	"viewpoint"
"43.8629354"	"5.4981045"	"Borie"	"attraction"
"43.8191076"	"5.4072383"	"Lou Pas deis Ensaris"	"attraction"
"45.3547301"	"5.9026057"	"L'Alpette"	"viewpoint"
"49.0528788"	"7.7490374"	"Bruderfelsen"	"viewpoint"
"49.0573027"	"7.7464211"	"Pfaffenfelsen"	"viewpoint"
"43.1826589"	"-0.2608236"	"Musée du Béret"	"museum"
"48.6872161"	"-0.6101199"	"Anciennes Mines de Fer"	"attraction"
"48.6951257"	"-0.5206578"	"Portail du XVIe"	"attraction"
"42.6029899"	"8.9118250"	"Couvent de Corbara"	"attraction"
"48.3846866"	"-4.4907368"	"Abri Sadi-Carnot"	"attraction"
"48.3846193"	"-4.4907584"	"Ancres de Marine"	"attraction"
"48.3832766"	"-4.4827221"	"Ancienne Chambre de Commerce"	"attraction"
"48.3896954"	"-4.4757956"	"Maison Freyssinet"	"attraction"
"48.3996454"	"-4.4717400"	"Borne du Pilier Rouge"	"attraction"
"45.5802327"	"5.9260672"	"Belvédère Chantemerle"	"viewpoint"
"49.6277726"	"2.0306403"	"Musée Agricole"	"museum"
"44.9135302"	"3.1108094"	"Belvédère du Mallet"	"viewpoint"
"44.1732302"	"5.1321418"	"table d'orientation"	"viewpoint"
"44.0780844"	"4.5593079"	"Oppidum Saint-Vincent"	"archaeological_site"
"44.0780844"	"4.5593079"	"Oppidum Saint-Vincent"	"attraction"
"44.3397350"	"4.4850213"	"Grotte de la Madeleine"	"attraction"
"43.9216008"	"5.1304288"	"Moulin à Papier"	"museum"
"48.1073812"	"7.0714177"	"Taubenklangfelsen"	"viewpoint"
"48.4827187"	"-4.3703439"	"Château de Keralias"	"attraction"
"45.3292491"	"2.3360456"	"Belvédère de Gratte-Bruyère"	"viewpoint"
"46.2301705"	"0.6813166"	"Point de vue sur la Vienne"	"viewpoint"
"49.7139803"	"-2.2063862"	"Alderney Museum"	"museum"
"49.5036031"	"-1.8409282"	"Roche à Coucou"	"viewpoint"
"45.0500902"	"3.8827552"	"Saint-Michel d'Aiguilhe"	"viewpoint"
"42.8709403"	"-0.1064794"	"Cascade de Lutour"	"attraction"
"44.1967297"	"5.9444920"	"Tour de l'horloge"	"attraction"
"46.0611025"	"3.7058559"	"musée agricole"	"museum"
"49.6775006"	"-1.9397688"	"Nez de Jobourg"	"attraction"
"48.0093582"	"-2.2008304"	"Hêtre des Voyageurs"	"attraction"
"48.2954313"	"7.3132626"	"Rocher du Coucou"	"viewpoint"
"48.8715793"	"2.2138544"	"Mémorial de la France combattante"	"memorial"
"48.8715793"	"2.2138544"	"Mémorial de la France combattante"	"attraction"
"47.6062173"	"3.4250577"	"Carrière souterraine d'Aubigny"	"attraction"
"47.8826240"	"3.4186151"	"Musée des arts populaires"	"museum"
"43.1753226"	"-1.4019846"	"Mugarrien 91. zenbakia"	"boundary_stone"
"43.1753226"	"-1.4019846"	"Mugarrien 91. zenbakia"	"attraction"
"44.9411955"	"4.8504713"	"Musée de Crussol"	"museum"
"44.9385343"	"4.8525909"	"Vue sur le Vercors et Valence"	"viewpoint"
"48.8695919"	"-3.2246570"	"Pointe du Château"	"viewpoint"
"48.3699679"	"2.7529336"	"Roches Creuses"	"attraction"
"43.2110247"	"5.4550744"	"Calanque de Sugiton"	"attraction"
"50.1519188"	"3.6179436"	"Musée des Évolutions"	"museum"
"49.0575437"	"7.7137615"	"Burgruine Blumenstein"	"ruins"
"49.0575437"	"7.7137615"	"Burgruine Blumenstein"	"attraction"
"45.1858217"	"0.7236234"	"Musée d'Art et d'Archéologie du Périgord"	"museum"
"47.3911120"	"0.9701246"	"Pagode de Chanteloup"	"castle"
"47.3911120"	"0.9701246"	"Pagode de Chanteloup"	"attraction"
"42.2540780"	"8.6507840"	"Château Fort"	"viewpoint"
"43.1492941"	"3.1077800"	"La vigie"	"viewpoint"
"42.5524369"	"8.7374025"	"Notre Dame della Serra"	"viewpoint"
"42.6953078"	"9.3998671"	"Serra di Pigno"	"viewpoint"
"48.3541096"	"2.7343860"	"005"	"viewpoint"
"48.8865065"	"2.1640357"	"Maison Giquel"	"attraction"
"48.0503251"	"7.2618173"	"Rocher Turenne"	"attraction"
"46.3029466"	"5.5693925"	"Chaussée aux Dinosaures"	"archaeological_site"
"46.3029466"	"5.5693925"	"Chaussée aux Dinosaures"	"attraction"
"43.7337991"	"3.5493176"	"Le Cloître de l'Abbaye de Gellone"	"museum"
"45.8919780"	"6.1891252"	"Ancienne Gare de Téléphérique"	"viewpoint"
"43.9993482"	"5.9102754"	"Ganagobie Plateau"	"viewpoint"
"49.0426798"	"3.9693405"	"Champagne de Castellane"	"attraction"
"49.0424907"	"3.9604907"	"Champagne Perrier Jouët"	"attraction"
"49.0420924"	"3.9633635"	"Champagne Pol Roger"	"attraction"
"49.0417302"	"3.9658773"	"Champagne Boizel/De Venoge"	"attraction"
"49.0446255"	"3.9436629"	"Champagne L B"	"attraction"
"49.0477542"	"3.9498063"	"Champagne Ellner"	"attraction"
"44.3223547"	"4.5480900"	"Belvédère Ranc Pointu"	"viewpoint"
"49.4224805"	"6.0277574"	"Part of an old cross?"	"attraction"
"45.8615826"	"1.7988149"	"Cascade des Jarrauds"	"attraction"
"46.0498453"	"0.6871620"	"Point de vue panoramique"	"viewpoint"
"45.5203055"	"-1.1201894"	"Mémorial du Fort Médoc Nord"	"museum"
"44.8812562"	"5.5224971"	"Pas de la Ville"	"viewpoint"
"46.2038442"	"6.8096557"	"Pointe de Chésery ou de Bécret"	"viewpoint"
"48.5754917"	"7.2871521"	"Hirschfels"	"viewpoint"
"43.4171146"	"5.5166401"	"Point de Vue de Pergine"	"viewpoint"
"49.2493495"	"2.5975916"	"Chêne à l'image"	"attraction"
"48.4265469"	"-4.6792709"	"Menhir de Kerloas"	"archaeological_site"
"48.4265469"	"-4.6792709"	"Menhir de Kerloas"	"attraction"
"46.1165072"	"6.3683091"	"Expomusee"	"museum"
"46.9706685"	"5.9962220"	"Musée de la Taillanderie"	"museum"
"49.5817505"	"2.9984424"	"Musée Jean Calvin"	"museum"
"47.0107138"	"6.2997583"	"Source de la Loue"	"attraction"
"43.5055164"	"5.6183866"	"Vue sur la haute vallée de l'Arc"	"viewpoint"
"43.5046284"	"5.6158115"	"Vue sur la haute vallée de l'Arc"	"viewpoint"
"45.8713101"	"5.7303174"	"Belvédère du pierrier"	"viewpoint"
"44.3736968"	"3.8227704"	"Pont du Tarn"	"attraction"
"47.3453465"	"6.3793361"	"Fente de Babre"	"viewpoint"
"47.4914679"	"-2.6827625"	"Pointe de Penvins"	"viewpoint"
"46.6972146"	"-1.7605675"	"Le Jardin des Olfacties"	"museum"
"44.6483884"	"3.2871457"	"Roc de Peyre"	"viewpoint"
"43.6935052"	"7.2790898"	"Raubà capeu"	"viewpoint"
"46.5205705"	"6.0226517"	"Musée de la lunette"	"museum"
"44.6459902"	"3.0704361"	"Cascade du Déroc"	"attraction"
"43.0816100"	"6.0324137"	"Musée de la Mine de Cap Garonne"	"museum"
"45.4128925"	"4.4404028"	"Madone de Rochetaillée"	"monument"
"45.4128925"	"4.4404028"	"Madone de Rochetaillée"	"viewpoint"
"47.0296719"	"6.2699023"	"Belvédère du Moine"	"viewpoint"
"47.0237168"	"6.2824385"	"Belvedere Renedale"	"viewpoint"
"48.8339640"	"2.3324924"	"Catacombes de Paris"	"museum"
"44.9002152"	"6.3565125"	"Col de la Temple"	"viewpoint"
"47.0686726"	"6.0177792"	"Belvedère de Gouille Noire"	"viewpoint"
"49.6561385"	"0.3785581"	"Ecomusée de la Pomme et du Cidre"	"museum"
"44.2408550"	"3.7473645"	"Menhir"	"attraction"
"46.6139044"	"5.8550754"	"Cascade de l'Eventail"	"attraction"
"46.6631787"	"5.8164067"	"Vue sur le Lac Chalain"	"viewpoint"
"46.6881951"	"5.6382305"	"Belvédère des Roches de Baume"	"viewpoint"
"46.7662199"	"5.6939244"	"Belvedère du cirque de Ladoye"	"viewpoint"
"48.6667883"	"7.2368524"	"Rocher de Sickert"	"viewpoint"
"48.0697884"	"7.0345624"	"Belvédère des Hirschsteine"	"viewpoint"
"48.0645451"	"7.0324653"	"Spitzenfelsen"	"viewpoint"
"47.0870539"	"6.7140865"	"Saut-du-Doubs"	"attraction"
"48.8361266"	"-0.8886282"	"Musée de Vire"	"museum"
"43.6913465"	"5.9075531"	"Panoramique à 360°"	"viewpoint"
"45.2579655"	"5.8115445"	"Pierre Grosse"	"attraction"
"42.3064050"	"9.1483295"	"Musée de la Corse"	"museum"
"43.5635711"	"6.1851347"	"Belvédère de la Cascade"	"viewpoint"
"48.0619020"	"6.8378425"	"Cascade de Mérelle"	"attraction"
"48.6368020"	"-1.5104358"	"Tour du Nord"	"viewpoint"
"44.4581845"	"6.0031476"	"Vue sur Gapençais & Écrins"	"viewpoint"
"48.2229923"	"0.5928030"	"Centre d'escalade"	"attraction"
"45.8060517"	"6.4249667"	"Arête du Pas de l'Ours"	"viewpoint"
"50.3678670"	"3.0806042"	"Beffroi"	"tower"
"50.3678670"	"3.0806042"	"Beffroi"	"attraction"
"48.9982761"	"7.6814408"	"Ruine Windstein"	"viewpoint"
"43.7419007"	"7.0009685"	"Cascade de Courmes"	"attraction"
"48.6837111"	"2.4902765"	"Obélisque"	"yes"
"48.6837111"	"2.4902765"	"Obélisque"	"attraction"
"45.8742029"	"5.7500890"	"Champ du Raz"	"viewpoint"
"46.0610502"	"6.9577844"	"Musée CFF (Usine de Barberine)"	"museum"
"43.8179118"	"5.3798599"	"Fort de Buoux"	"castle"
"43.8179118"	"5.3798599"	"Fort de Buoux"	"attraction"
"43.9009268"	"5.2960041"	"Sentier des Ocres"	"attraction"
"48.4359380"	"-4.7227251"	"Lavoir de Kerven"	"attraction"
"48.4568527"	"-4.7088257"	"Fontaine Saint-Éloi"	"attraction"
"48.4064005"	"-4.7790862"	"Fort de Porsmoguer"	"castle"
"48.4064005"	"-4.7790862"	"Fort de Porsmoguer"	"attraction"
"48.4189804"	"-4.7859561"	"Lavoir de Ruscumunoc"	"attraction"
"48.4217201"	"-4.7846224"	"Four à Goëmon"	"archaeological_site"
"48.4217201"	"-4.7846224"	"Four à Goëmon"	"attraction"
"48.4228597"	"-4.7881919"	"Mur antichar"	"battlefield"
"48.4228597"	"-4.7881919"	"Mur antichar"	"attraction"
"44.8756268"	"4.8443765"	"Ardéche Miniatures"	"museum"
"42.9721534"	"-0.0598554"	"Donjon des Aigles"	"attraction"
"47.5718955"	"-2.8986484"	"Tumulus-dolmen de l'île de Gavrinis"	"archaeological_site"
"47.5718955"	"-2.8986484"	"Tumulus-dolmen de l'île de Gavrinis"	"attraction"
"48.5715055"	"7.7342467"	"ragondins"	"attraction"
"48.4519619"	"-4.6835294"	"Calvaire de Keramaze"	"wayside_cross"
"48.4519619"	"-4.6835294"	"Calvaire de Keramaze"	"attraction"
"48.4514000"	"-4.6645406"	"Lit de Saint-Renan"	"wayside_cross"
"48.4514000"	"-4.6645406"	"Lit de Saint-Renan"	"attraction"
"48.4477852"	"-4.6707418"	"Croix de Kerezec"	"wayside_cross"
"48.4477852"	"-4.6707418"	"Croix de Kerezec"	"attraction"
"48.4331229"	"-4.6618173"	"Lavoir de Kerveatouz"	"attraction"
"48.4259461"	"-4.7682912"	"Le Vieux Lavoir"	"attraction"
"49.4887098"	"0.1134710"	"Salon des Navigateurs"	"museum"
"49.4877747"	"0.1090690"	"Muséum d'Histoire Naturelle"	"museum"
"45.3207561"	"3.6972875"	"Salle de l'Écho"	"attraction"
"44.6491636"	"6.6381104"	"Four à Poterie"	"attraction"
"48.6532190"	"-3.5467718"	"Chapel Melar"	"viewpoint"
"48.4574004"	"-4.7295186"	"Rouissoir de Lanhalla"	"archaeological_site"
"48.4574004"	"-4.7295186"	"Rouissoir de Lanhalla"	"attraction"
"47.8027541"	"-3.7223299"	"Pointe de Kerfany - Espace du souvenir."	"viewpoint"
"48.6216181"	"-3.5125802"	"Dolmen du Crec'h An Hu"	"archaeological_site"
"48.6216181"	"-3.5125802"	"Dolmen du Crec'h An Hu"	"attraction"
"48.9367698"	"-0.8384459"	"Halle"	"attraction"
"43.4503360"	"-1.4221317"	"Belvédères d'Ellori Mendi et d'Arrapidia"	"viewpoint"
"48.6346350"	"6.0365564"	"Dent de la Roche"	"viewpoint"
"48.4366668"	"-4.7841075"	"Four à Goëmon"	"archaeological_site"
"48.4366668"	"-4.7841075"	"Four à Goëmon"	"attraction"
"48.4371010"	"-4.7832819"	"Four à Goëmon"	"archaeological_site"
"48.4371010"	"-4.7832819"	"Four à Goëmon"	"attraction"
"48.4371462"	"-4.7821562"	"Four à Goëmon"	"archaeological_site"
"48.4371462"	"-4.7821562"	"Four à Goëmon"	"attraction"
"48.4382447"	"-4.7804273"	"Lavoir"	"archaeological_site"
"48.4382447"	"-4.7804273"	"Lavoir"	"attraction"
"48.4428503"	"-4.7790488"	"Four à Goëmon"	"archaeological_site"
"48.4428503"	"-4.7790488"	"Four à Goëmon"	"attraction"
"48.4399029"	"-4.7784400"	"Four à Goëmon"	"archaeological_site"
"48.4399029"	"-4.7784400"	"Four à Goëmon"	"attraction"
"48.4410246"	"-4.7781392"	"Abri soute"	"battlefield"
"48.4410246"	"-4.7781392"	"Abri soute"	"attraction"
"48.4438473"	"-4.7761044"	"Ancien Moulin"	"ruins"
"48.4438473"	"-4.7761044"	"Ancien Moulin"	"attraction"
"44.0086161"	"4.8737452"	"Roue à Aubes"	"attraction"
"48.7307742"	"-3.5375796"	"Fontaine de dévotion du Yaudet"	"attraction"
"44.0494283"	"6.9778027"	"Gorges du Cians"	"attraction"
"49.1672167"	"7.3701666"	"Motocross Schweyen"	"attraction"
"49.1772721"	"7.3961639"	"FD-Grenze"	"attraction"
"49.1717000"	"7.3655833"	"DF-Grenze"	"viewpoint"
"43.6958608"	"7.2795302"	"Cascade"	"attraction"
"43.8900817"	"-0.4990523"	"Centre d'Art Contemporain Raymond Farbos"	"museum"
"45.8374263"	"4.8052765"	"Lavoir"	"attraction"
"48.4646497"	"-4.7361879"	"Carrière Marjan"	"attraction"
"48.4648180"	"-4.7371978"	"Fontaine Lavoir"	"archaeological_site"
"48.4648180"	"-4.7371978"	"Fontaine Lavoir"	"attraction"
"48.6432517"	"-0.9331467"	"Petite-Chapelle"	"viewpoint"
"43.6106627"	"3.8785261"	"Musée du vieux Montpellier"	"museum"
"43.6101827"	"3.8744629"	"Carré Sainte-Anne"	"attraction"
"46.2371740"	"1.4868356"	"Porte de ville dite Porte Saint-Jean (avec la courtine adjacente)"	"yes"
"46.2371740"	"1.4868356"	"Porte de ville dite Porte Saint-Jean (avec la courtine adjacente)"	"attraction"
"48.9097073"	"-0.4547487"	"Rochers des Parcs"	"viewpoint"
"48.8373332"	"0.1421361"	"Mémorial de Coudehard-Montormel"	"monument"
"48.8373332"	"0.1421361"	"Mémorial de Coudehard-Montormel"	"museum"
"45.3825508"	"6.7195829"	"Bouquetin"	"viewpoint"
"48.0773440"	"7.3511561"	"Maréchal de Lattre de Tassigny"	"monument"
"48.0773440"	"7.3511561"	"Maréchal de Lattre de Tassigny"	"attraction"
"49.2640114"	"-0.2354873"	"Maison de la Nature et de l'Estuaire"	"museum"
"48.0739759"	"7.3573065"	"La petite Venise"	"viewpoint"
"48.0743391"	"7.3597709"	"Quai de la Poissonerie"	"viewpoint"
"45.3556872"	"6.6867652"	"Petit Mont Blanc"	"viewpoint"
"45.3933564"	"5.2612214"	"Musée Hector-Berlioz"	"museum"
"47.8950750"	"-2.1478084"	"Four à Pain"	"attraction"
"48.0792171"	"7.3619783"	"Musée du Jouet de Colmar"	"museum"
"44.1468845"	"5.4962771"	"Belvédère"	"viewpoint"
"45.2056800"	"5.7512010"	"Musée Hébert"	"museum"
"46.1224231"	"3.4231900"	"Musée de l'Opéra"	"museum"
"46.5252569"	"-0.3320816"	"Belvedère des Rouleaux"	"viewpoint"
"48.1402202"	"5.6948086"	"Fonderie de cloches"	"museum"
"49.6373411"	"-1.6229459"	"Musée Thomas Henry"	"museum"
"47.2249147"	"2.0602204"	"Musée Laumônier de la locomotive à vapeur"	"museum"
"43.9474588"	"4.5301314"	"Point de Vue"	"viewpoint"
"47.4697385"	"-0.5606345"	"Galerie de l'Apocalypse"	"museum"
"48.9273043"	"-0.2557754"	"Abbaye Cistercienne"	"attraction"
"43.4491097"	"6.9190338"	"Pointe de l’Observatoire"	"viewpoint"
"43.4488945"	"6.9187443"	"Pointe de l’Observatoire"	"viewpoint"
"43.7640151"	"4.9503181"	"Point de Vue"	"viewpoint"
"48.4701801"	"-4.7532923"	"Four à Goëmon"	"archaeological_site"
"48.4701801"	"-4.7532923"	"Four à Goëmon"	"attraction"
"43.7041084"	"5.0819875"	"Grottes de Calès"	"attraction"
"47.7939429"	"1.0312301"	"Atelier-Musée Louis Leygue"	"museum"
"48.4715048"	"-4.7449614"	"Fontaine Lavoir"	"archaeological_site"
"48.4715048"	"-4.7449614"	"Fontaine Lavoir"	"attraction"
"48.0592820"	"-0.7591097"	"Lactopôle André Besnier"	"museum"
"48.6449326"	"-2.1125937"	"Pointe du Décollé"	"viewpoint"
"43.0484957"	"-0.6660216"	"vue sur le village"	"viewpoint"
"42.9941968"	"6.1863059"	"Mont de Tiélo"	"viewpoint"
"45.0645272"	"5.4949790"	"Belvédère de Valchevrière"	"viewpoint"
"45.0716791"	"5.4800648"	"Brèche de Chalimont"	"viewpoint"
"47.1198119"	"-1.6556900"	"Pierre Aigüe"	"viewpoint"
"43.8931820"	"5.1167287"	"Pieï"	"viewpoint"
"42.9599584"	"-0.6175731"	"Vue sur le Vallon"	"viewpoint"
"44.2776859"	"5.7931453"	"Ancien moulin"	"attraction"
"45.8800632"	"4.5595762"	"Tilleul de Sully à Sarcey"	"attraction"
"48.7952242"	"2.5291533"	"Terrasse de Chennevières"	"viewpoint"
"44.8331238"	"-0.5618451"	"Porte de la Monnaie"	"city_gate"
"44.8331238"	"-0.5618451"	"Porte de la Monnaie"	"attraction"
"43.9637806"	"5.8651344"	"Moulin à huile"	"attraction"
"48.6909427"	"-3.5221697"	"Fontaine Saint-Cado"	"fountain"
"48.6909427"	"-3.5221697"	"Fontaine Saint-Cado"	"attraction"
"42.9358263"	"-0.6288536"	"Table d'Orientation du Kiosque"	"viewpoint"
"44.6167275"	"4.6077214"	"Neck"	"attraction"
"45.6810218"	"5.9734190"	"Restaurant Les 4 Vallées"	"viewpoint"
"48.2186474"	"-1.5777411"	"Pierre du Crieur"	"attraction"
"48.2192021"	"-1.5769147"	"Lavoir"	"attraction"
"49.1206345"	"6.1756634"	"Trésor de la Cathédrale"	"museum"
"46.0915846"	"5.7254582"	"Croix de Monthéry"	"wayside_cross"
"46.0915846"	"5.7254582"	"Croix de Monthéry"	"viewpoint"
"44.6580919"	"3.1500351"	"Truc du Coucut"	"attraction"
"45.6112268"	"2.7726021"	"La Banne d'Ordanche"	"viewpoint"
"48.6649017"	"7.5296228"	"Télégraphe Chappe"	"yes"
"48.6649017"	"7.5296228"	"Télégraphe Chappe"	"attraction"
"45.8283119"	"6.4056746"	"Pointe d'Orsière"	"viewpoint"
"46.1283332"	"6.5753958"	"Pic de Marcelly"	"viewpoint"
"43.3187230"	"6.4653626"	"La Croix des Maures"	"wayside_cross"
"43.3187230"	"6.4653626"	"La Croix des Maures"	"viewpoint"
"48.0936989"	"6.6379092"	"Tête des Cuveaux"	"viewpoint"
"48.0360391"	"6.7540918"	"Moyemont"	"viewpoint"
"43.5667565"	"1.4734921"	"Mirage III"	"attraction"
"43.7257954"	"4.7018003"	"Tour"	"yes"
"43.7257954"	"4.7018003"	"Tour"	"attraction"
"43.6334689"	"5.5336225"	"Aqueduc romain"	"aqueduct"
"43.6334689"	"5.5336225"	"Aqueduc romain"	"attraction"
"43.7003203"	"6.7903109"	"Arche naturelle de Ponadieu"	"viewpoint"
"47.1231770"	"1.0006958"	"Carrière troglodytique de Vignemont"	"museum"
"43.7096515"	"3.5526714"	"Grotte de Clamouse"	"attraction"
"48.8354737"	"7.6385898"	"Le Geiersberg"	"viewpoint"
"47.3111559"	"4.9586246"	"Le Rucher"	"attraction"
"42.8883497"	"-0.5614864"	"Point de vue sur le Fort du Portalet"	"viewpoint"
"43.9220356"	"5.1302755"	"Musée de la Liberté"	"museum"
"48.5764122"	"-3.3077400"	"Menez Bré"	"viewpoint"
"48.4200032"	"-1.6706278"	"Menhir La Pierre-Longue"	"archaeological_site"
"48.4200032"	"-1.6706278"	"Menhir La Pierre-Longue"	"attraction"
"43.8539548"	"5.3858213"	"Distillerie de lavande Les Agnels"	"museum"
"47.2514280"	"1.6564680"	"Piscine"	"attraction"
"43.8283566"	"5.1609922"	"Oppède-le-Vieux"	"attraction"
"42.8278609"	"-0.5449393"	"Vue sur le Plateau de la Gentiane"	"viewpoint"
"45.8421645"	"4.7980696"	"Table d'orientation du Mont Thou"	"viewpoint"
"49.0763478"	"1.5313261"	"Musée des impressionismes"	"museum"
"46.2327054"	"6.0557659"	"Microcosm"	"museum"
"43.0982345"	"-0.0488800"	"Moulin de Boly"	"museum"
"42.9966534"	"-0.5743973"	"Vue sur l'Ardoisière et le Vallon"	"viewpoint"
"43.5951575"	"3.1114812"	"Cave Hérépian"	"attraction"
"44.4074055"	"1.7678146"	"Affleurement Calcaire"	"attraction"
"43.8423008"	"-1.3628767"	"Adrénaline Parc"	"attraction"
"43.8862623"	"5.4322647"	"Borie"	"attraction"
"43.2114313"	"5.4457618"	"Calanque de Morgiou"	"attraction"
"43.4738559"	"2.7131791"	"Grotte de la Devèze"	"attraction"
"48.6706710"	"-3.5893316"	"Grand Rocher"	"viewpoint"
"44.8583122"	"1.7500843"	"Gouffre de Padirac"	"attraction"
"48.5713748"	"-3.6806940"	"Stèle Gauloise de Croaz-Ar-Peulven"	"monument"
"48.5713748"	"-3.6806940"	"Stèle Gauloise de Croaz-Ar-Peulven"	"attraction"
"48.3851790"	"-4.4901225"	"Musee des Beaux Arts / Artothèque"	"museum"
"48.3817513"	"-4.4930069"	"Musée de la Marine"	"museum"
"43.6203695"	"3.3566556"	"Cirque de Mourèze"	"attraction"
"45.6637887"	"0.2546164"	"Sources de la Touvre"	"attraction"
"48.5353173"	"-1.7393607"	"Menhir de Champ-Dolent"	"archaeological_site"
"48.5353173"	"-1.7393607"	"Menhir de Champ-Dolent"	"attraction"
"48.4241916"	"-4.7872188"	"Mur antichar"	"battlefield"
"48.4241916"	"-4.7872188"	"Mur antichar"	"attraction"
"48.6294869"	"-3.5240331"	"Calvaire du Run"	"wayside_cross"
"48.6294869"	"-3.5240331"	"Calvaire du Run"	"attraction"
"43.9146809"	"5.4998382"	"Les Cheminées des Fées"	"viewpoint"
"45.0393335"	"-0.5016959"	"Grottes de Pair-Non-Pair"	"museum"
"48.3662729"	"-4.4258890"	"Kernizi"	"viewpoint"
"48.3639673"	"-4.4275450"	"Panorama de Kernizi"	"viewpoint"
"48.3622444"	"-4.5486913"	"Sainte-Anne du Portzic"	"viewpoint"
"48.3833632"	"-4.4877932"	"Cours Dajot"	"viewpoint"
"48.3149451"	"-4.3361529"	"Le Bendy"	"viewpoint"
"48.3842523"	"-4.4943174"	"."	"viewpoint"
"48.3599974"	"-4.4363212"	"Pointe Marloux"	"viewpoint"
"48.3280500"	"-4.4071538"	"Kerdéniel"	"viewpoint"
"48.2846653"	"-4.3521557"	"Lomergat"	"viewpoint"
"42.4502308"	"3.0543535"	"Coll de Banyuls."	"viewpoint"
"48.2922254"	"-4.4565919"	"La Grève"	"viewpoint"
"45.1762974"	"5.2168650"	"Musée"	"museum"
"43.8314021"	"4.7826929"	"Maison de Frédéric Mistral"	"museum"
"49.2042348"	"2.8961766"	"Rocher"	"viewpoint"
"44.3123901"	"3.2430455"	"Le Point Sublime"	"viewpoint"
"44.9598856"	"5.6880966"	"Belvédère EDF de Monteynard-Avignonet"	"viewpoint"
"43.4886291"	"2.9060985"	"Chapelle de la Dourque"	"viewpoint"
"48.6698699"	"-3.9111878"	"Château du Taureau - Billetterie"	"attraction"
"44.4438316"	"1.4500886"	"Point de vue du Mont Saint-Cyr sur Cahors"	"viewpoint"
"43.3531318"	"-1.2060313"	"Grottes d'Isturitz et d'Otsozelhaia"	"archaeological_site"
"43.3531318"	"-1.2060313"	"Grottes d'Isturitz et d'Otsozelhaia"	"attraction"
"48.7115859"	"7.3210488"	"Petit Krappenfels"	"viewpoint"
"48.1537350"	"-0.6910430"	"Vierge à L'enfant"	"viewpoint"
"43.5947288"	"1.4431864"	"Statuette de l'Homme Armé"	"attraction"
"43.0046397"	"-0.9261970"	"Gorges de Holtzarté"	"attraction"
"44.7997954"	"1.6174923"	"Belvédère de la Grue"	"viewpoint"
"44.0138568"	"6.2530481"	"Clue de Chabrières"	"attraction"
"42.7849337"	"2.2222084"	"Gorges de Saint-Georges"	"attraction"
"45.9538640"	"6.5727880"	"Les Quatre Têtes"	"viewpoint"
"46.8759470"	"6.3627551"	"Point de vue de la Fauconnière"	"viewpoint"
"47.0515298"	"4.7546263"	"Le Pas de Saint-Martin"	"viewpoint"
"43.0534043"	"2.2144622"	"Musée Petiet"	"museum"
"47.0995637"	"-0.9934183"	"Museé de la Chaussure"	"museum"
"50.7235251"	"1.6150957"	"Rue d'Aumont"	"city_gate"
"50.7235251"	"1.6150957"	"Rue d'Aumont"	"attraction"
"48.8409649"	"7.3421425"	"Le Hirschfels"	"viewpoint"
"48.8312580"	"7.3432964"	"Le Geierfelsen"	"viewpoint"
"48.8446004"	"7.3450417"	"Le Finkenstein"	"viewpoint"
"44.8561832"	"5.5494061"	"Parcours Aventure"	"attraction"
"48.8362469"	"2.2398065"	"Musée des années 30"	"museum"
"50.7248108"	"1.6135199"	"Ville Fortifiée"	"attraction"
"47.7953914"	"3.5662624"	"Musée Leblanc Duvernay"	"museum"
"47.2909002"	"-2.5075048"	"Mont Esprit"	"viewpoint"
"47.2994619"	"-2.5181425"	"Point de vue"	"viewpoint"
"49.0249979"	"-1.0388061"	"Les Roches de Ham"	"viewpoint"
"50.0429800"	"3.5380219"	"Cascade de Saint-Martin Rivière"	"ruins"
"50.0429800"	"3.5380219"	"Cascade de Saint-Martin Rivière"	"viewpoint"
"49.1263233"	"-1.3013431"	"Musée Tancrède"	"museum"
"48.7479939"	"2.0152509"	"Musée National de Port Royal des Champs"	"museum"
"49.2039277"	"6.8630557"	"Les Mineurs Wendel"	"museum"
"43.6692761"	"2.3918065"	"L'Eléphant"	"attraction"
"43.6688677"	"2.3911949"	"Le Billard"	"attraction"
"43.6706614"	"2.3875015"	"Les 3 Fromages"	"attraction"
"44.8024623"	"1.6196230"	"Le coin du photographe"	"viewpoint"
"43.8525432"	"1.8101669"	"Musée Art du Chocolat"	"museum"
"43.4934769"	"1.5356065"	"Fake wooden boat"	"attraction"
"47.1426981"	"1.8457631"	"Musée de la Photo"	"museum"
"50.7857286"	"1.6034410"	"pointe des oies"	"viewpoint"
"44.2773123"	"1.6307370"	"Laverie"	"attraction"
"45.1722409"	"5.6683674"	"La Tour Sans Venin"	"viewpoint"
"49.2164810"	"6.8342788"	"Erlebnisbergwerk Velsen"	"attraction"
"47.9866781"	"0.2081107"	"Musée Vert"	"museum"
"44.7404147"	"1.8302188"	"Halles"	"attraction"
"48.6733057"	"-3.8987935"	"Pointe du Cosmer"	"viewpoint"
"43.2197344"	"0.8800398"	"Donjon"	"viewpoint"
"43.2125990"	"2.3550441"	"Musée des Beaux-Arts"	"museum"
"44.9782003"	"1.0537528"	"Prehistoparc"	"attraction"
"45.8085632"	"6.2445220"	"Col de la Forclaz"	"viewpoint"
"45.8457188"	"6.9316742"	"Mostra dei cristalli"	"museum"
"48.3502134"	"-3.9457193"	"Montagne Saint-Michel"	"viewpoint"
"45.0196939"	"1.1015749"	"Elevage d'Aurochs du Petit Pech"	"attraction"
"45.0089504"	"1.1189587"	"Elevage d'Oies de La Voulperie"	"attraction"
"42.7327511"	"0.5524830"	"Cascade d'Enfer"	"viewpoint"
"45.0133242"	"1.1397050"	"Les Cabannes"	"ruins"
"45.0133242"	"1.1397050"	"Les Cabannes"	"attraction"
"42.7572486"	"0.5380497"	"Pic de Céciré"	"attraction"
"47.8708021"	"-2.4996483"	"L'univers du Poête Férailleur"	"attraction"
"44.0462235"	"4.4407029"	"Musée de la Terre"	"museum"
"43.3009044"	"6.4566541"	"Les Roches Blanches"	"viewpoint"
"44.5541620"	"2.3048740"	"Puy de Wolf"	"attraction"
"42.2679458"	"8.8311045"	"Piscine naturelle"	"attraction"
"42.4571203"	"2.6116093"	"Les Gorges de la Fou"	"attraction"
"45.0369734"	"4.1548426"	"Lac Bleu"	"attraction"
"47.9062316"	"7.2227025"	"Croix de Mission"	"wayside_cross"
"47.9062316"	"7.2227025"	"Croix de Mission"	"viewpoint"
"45.6946988"	"6.4406843"	"Ecomusée de la Chaume"	"museum"
"46.0711573"	"1.4058057"	"La Pierre du Loup"	"attraction"
"43.7011741"	"7.1151799"	"Fondation Maeght"	"museum"
"45.4603761"	"6.7465996"	"Glacialis"	"museum"
"48.3955304"	"7.2564156"	"Rocher de l'Edelweiss"	"attraction"
"44.8365933"	"0.9173798"	"Grottes de Maxange"	"attraction"
"45.5808238"	"2.9299942"	"Panorama sur le lac Chambon"	"viewpoint"
"44.4633200"	"1.6818450"	"Cirque de Venes"	"viewpoint"
"50.8254422"	"2.2337242"	"Belvédère"	"viewpoint"
"49.1825975"	"3.4438710"	"La Hottée du Diable"	"viewpoint"
"43.2163323"	"2.3519974"	"Porte des Carmes"	"attraction"
"43.0109456"	"2.2330575"	"Pic de Brau"	"viewpoint"
"46.8830297"	"6.3702560"	"Belvédère du Fer à Cheval"	"viewpoint"
"43.7436565"	"6.3578211"	"Belvédère de Guegues"	"viewpoint"
"46.7908184"	"-0.6061716"	"La Tour Nivelle"	"museum"
"48.8143500"	"-3.4912229"	"Le chêne majestueux"	"attraction"
"46.4851766"	"4.7455649"	"Grotte de Blanot"	"attraction"
"43.6472894"	"3.9755635"	"Les 2 Cyprès Jumeaux du Pioch Palat"	"attraction"
"47.9053491"	"1.7890587"	"La pierre bleue"	"attraction"
"43.5384030"	"5.4462542"	"Atelier Cézanne"	"museum"
"47.0148835"	"5.8529279"	"Miroir d'eau de Rennes-sur-Loue"	"viewpoint"
"45.7355801"	"5.9038140"	"Grotte aux fées"	"viewpoint"
"43.6337490"	"7.0537386"	"Sculpture de licorne"	"attraction"
"48.8602845"	"2.3247488"	"Musée de la Légion d'Honneur et des Ordres de Chevalerie"	"museum"
"43.5596666"	"1.2673091"	"Spectacle des Oiseaux"	"attraction"
"42.3612322"	"9.5002782"	"Waterfall"	"attraction"
"45.6922541"	"-0.2975672"	"L'Échassier"	"viewpoint"
"48.6978495"	"7.3034767"	"Pierre des Druides"	"attraction"
"48.6896307"	"7.3170106"	"Rocher de Hibou"	"attraction"
"48.6205730"	"7.2642329"	"Rocher du Rosskopf"	"attraction"
"48.6289454"	"7.2555753"	"Backofenfels"	"viewpoint"
"48.6930099"	"7.3014565"	"Grand Krappenfels"	"attraction"
"48.6993733"	"7.3294769"	"La Cuve de Pierrre"	"attraction"
"48.8667099"	"-3.2379701"	"Le Gouffre"	"viewpoint"
"45.6730878"	"6.3166863"	"Point de vue (Vallée d'Albertville et Mont-Blanc)"	"viewpoint"
"48.8733718"	"2.7753154"	"Blanche Neige et les Sept Nains"	"attraction"
"48.8705677"	"2.7744487"	"River Rogue Keelboats"	"attraction"
"48.8723505"	"2.7738013"	"La Cabane des Robinson"	"attraction"
"48.8735115"	"2.7778416"	"Buzz Lightyear Laser Blast"	"attraction"
"44.8937599"	"6.7136110"	"Fort du Gondran"	"castle"
"44.8937599"	"6.7136110"	"Fort du Gondran"	"attraction"
"43.6285753"	"3.1784549"	"Source de Theron"	"attraction"
"48.8376176"	"-3.3103601"	"Voleur"	"viewpoint"
"49.0824534"	"-0.6679533"	"Vierge Noire"	"wayside_shrine"
"49.0824534"	"-0.6679533"	"Vierge Noire"	"attraction"
"47.9136308"	"-4.3526957"	"Ruines de la chapelle de Languidou"	"attraction"
"48.8545007"	"2.3256491"	"Barthélémy"	"attraction"
"43.0693305"	"1.3555101"	"Grotte du Mas-d'Azil"	"archaeological_site"
"43.0693305"	"1.3555101"	"Grotte du Mas-d'Azil"	"attraction"
"48.0868554"	"7.2781001"	"Corps de Garde"	"attraction"
"43.7378212"	"4.1236643"	"La Roque de Saint-Sériès"	"viewpoint"
"42.7007622"	"0.6032464"	"Col de la Glère"	"viewpoint"
"50.7747571"	"2.2988006"	"La Grange Nature"	"attraction"
"45.6829598"	"0.4587095"	"site de la Fenetre"	"viewpoint"
"43.9670843"	"4.7963801"	"Moulin à huile"	"attraction"
"44.1245666"	"5.2064165"	"Les Demoiselles Coiffees"	"attraction"
"44.5863531"	"4.1869971"	"Valousset"	"viewpoint"
"42.2474526"	"8.6564940"	"Marie Immaculée"	"attraction"
"47.8104418"	"2.3056603"	"Maison Max Jacob (office du tourisme)"	"museum"
"48.7865636"	"-3.2301925"	"Maison de la Psalette"	"attraction"
"46.6812663"	"5.9375895"	"Cascade de la Billaude"	"viewpoint"
"50.7214131"	"2.5344621"	"Musée des Augustins"	"museum"
"46.6061358"	"5.5166035"	"La Huarde"	"viewpoint"
"45.1475075"	"5.6394189"	"Moucherotte"	"viewpoint"
"47.8634295"	"7.1673367"	"Klippenstollen"	"attraction"
"45.8793034"	"5.6789725"	"Cascade de Cerveyrieu"	"viewpoint"
"47.0727227"	"0.6073120"	"Menhir de la Pierre Percée"	"archaeological_site"
"47.0727227"	"0.6073120"	"Menhir de la Pierre Percée"	"attraction"
"47.0896386"	"5.4891469"	"Musée des Beaux-arts de Dole"	"museum"
"47.0920172"	"5.4956193"	"Musée Louis Pasteur"	"museum"
"48.5799179"	"7.2827567"	"Château du Nideck (Ober-Nideck)"	"castle"
"48.5799179"	"7.2827567"	"Château du Nideck (Ober-Nideck)"	"attraction"
"44.7330532"	"2.6499279"	"Cascade  Saut du Chien "	"viewpoint"
"44.2903638"	"3.2380890"	"Pas de Soucy"	"viewpoint"
"42.8375167"	"2.2047682"	"Défilé de la Pierre Lys"	"attraction"
"49.5422482"	"5.7537619"	"Le Chalet"	"attraction"
"48.2375334"	"7.2775331"	"Rocher des Géants"	"attraction"
"48.2936996"	"7.3044084"	"Rocher"	"viewpoint"
"48.0726413"	"7.3570327"	"La petite Venise"	"viewpoint"
"45.8003405"	"3.0938897"	"Puy de Chanturgue"	"viewpoint"
"45.4776920"	"2.8244714"	"Cascade de la Barthe"	"viewpoint"
"47.3958548"	"0.6869467"	"Musée des Vins de Touraine"	"museum"
"48.6886293"	"-4.0685683"	"Pen an Dour"	"viewpoint"
"48.8302407"	"7.9627639"	"L'Oelberg"	"attraction"
"48.7381719"	"-4.0117910"	"Malvog"	"viewpoint"
"50.0493649"	"1.4171188"	"Musée Louis-Philippe"	"museum"
"44.5804241"	"4.7540861"	"Palais des bonbons et du nougat"	"attraction"
"48.7375874"	"-3.9927307"	"Penn ar C'hleger"	"viewpoint"
"48.7491031"	"-4.0287812"	"Le Roc'h"	"viewpoint"
"48.7470391"	"-4.0382744"	"Le Trou du Serpent"	"attraction"
"42.5074589"	"2.1212301"	"Four solaire de Mont-Louis"	"attraction"
"45.1562119"	"1.5276171"	"Musée Edmond-Michelet"	"museum"
"48.8575222"	"2.2845690"	"Musée du Vin"	"museum"
"48.8453955"	"2.3614522"	"Renard des Steppes"	"attraction"
"48.8456345"	"2.3601865"	"Markhor"	"attraction"
"48.8448789"	"2.3615789"	"Lama"	"attraction"
"48.8461195"	"2.3602750"	"Casoar"	"attraction"
"48.8444481"	"2.3587844"	"Gaur"	"attraction"
"48.8450334"	"2.3589961"	"Poudou"	"attraction"
"48.8448968"	"2.3592364"	"Sanglier de Visayas"	"attraction"
"48.8442372"	"2.3582576"	"Daim"	"attraction"
"48.8431371"	"2.3559220"	"Labyrinthe - Gloriette de Buffon"	"viewpoint"
"49.5153869"	"-1.8741099"	"Ball Trap"	"viewpoint"
"49.5136372"	"-1.8608854"	"Anse de Sciotot"	"viewpoint"
"45.9645748"	"3.6068253"	"Rez de Sol"	"viewpoint"
"45.0330738"	"3.0948739"	"Musée de la Haute-Auvergne"	"museum"
"47.0326322"	"-1.8890721"	"Point de vue de Saint-Cyr"	"viewpoint"
"46.2325449"	"6.0552594"	"Gargamelle bubble chamber"	"attraction"
"47.2257220"	"0.0222223"	"Pommes Tapées"	"museum"
"49.0745514"	"7.8024622"	"Mäuerle"	"viewpoint"
"44.1340960"	"4.8090466"	"Belvédère des amis de la colline"	"viewpoint"
"43.9256696"	"5.8910358"	"Escalier en bois sculpté"	"attraction"
"43.6538784"	"0.6494808"	"Ruines"	"attraction"
"43.3644652"	"1.8195371"	"Montferrand"	"viewpoint"
"47.2123260"	"-0.7318621"	"Jardin des Planètes Soleil"	"attraction"
"43.9079555"	"5.7284726"	"Centre d'Astronomie"	"attraction"
"48.8307390"	"2.3662792"	"Trompe-oeil Bach"	"attraction"
"45.9266625"	"6.0642593"	"ENS Marais de Poisy"	"attraction"
"48.3454115"	"7.7443955"	"Rheinblick Parkplatz"	"viewpoint"
"45.8372440"	"4.8265596"	"La Demeure du Chaos"	"museum"
"48.8732257"	"2.7789328"	"Autopia"	"attraction"
"48.8698555"	"2.7756818"	"Coyote"	"attraction"
"49.5071797"	"0.0737340"	"La table d'orientation"	"viewpoint"
"44.8196851"	"6.7347331"	"Musée du Tour de France"	"museum"
"48.8625016"	"2.3453019"	"Salle des collections"	"museum"
"47.2361392"	"6.9620476"	"L'arête des Sommêtres"	"viewpoint"
"43.6779173"	"4.6327014"	"Point de vue sur les Alpilles"	"viewpoint"
"47.6268978"	"4.3350963"	"Tour de l'Aubépin"	"museum"
"45.5812018"	"5.8260858"	"Point de Vue du Col de L'Épine"	"viewpoint"
"49.9614943"	"2.1092987"	"Abbaye du Gard"	"attraction"
"42.7007937"	"2.8978063"	"Maison de la Catalanité"	"museum"
"43.4008890"	"6.3482897"	"Bari du Vieux Cannet"	"viewpoint"
"49.0799552"	"-0.6603735"	"Sculpture"	"attraction"
"43.3924124"	"6.3495356"	"Moulin à huile médieval"	"attraction"
"45.7631720"	"4.8193262"	"Pont des Quatre Vents du parc de la Sarra"	"viewpoint"
"43.4051224"	"6.3360179"	"Ancienne tour de vigie"	"viewpoint"
"44.1967513"	"5.9445236"	"Horloge"	"attraction"
"45.1486342"	"4.0059495"	"Table d'orientation"	"viewpoint"
"45.1446377"	"3.9871027"	"Croix de Jalore"	"attraction"
"44.4076574"	"4.3961563"	"Grotte Chauvet (exposition)"	"museum"
"43.9665144"	"4.7975804"	"Chartreuse Notre-Dame-du-Val-de-Bénédiction"	"museum"
"50.1733189"	"3.2298565"	"Musée Municipal des Beaux-Arts"	"museum"
"45.3788867"	"1.5166175"	"If millénaire"	"attraction"
"44.8936695"	"1.4768774"	"Musée de l'Automate"	"museum"
"45.2279750"	"6.7417322"	"L'Arche d'Oé"	"museum"
"45.2218711"	"6.7280687"	"Cascade Saint-Benoît"	"attraction"
"43.8692869"	"5.5303428"	"Borie"	"attraction"
"45.2328181"	"5.7761681"	"Fontaine Ardente"	"attraction"
"50.6267698"	"3.0510775"	"Fontaine mauresque"	"attraction"
"50.6230512"	"3.0538369"	"Chaîne de la Solidarité"	"attraction"
"45.0855182"	"4.8373564"	"Belvédère de Pierre-Aiguille"	"viewpoint"
"43.6611073"	"2.4492336"	"Musée du Protestantisme en Haut-Languedoc"	"museum"
"47.6144404"	"-3.1188516"	"Mané er mor"	"viewpoint"
"48.8430941"	"2.3572483"	"Nouvelle-Calédonie"	"attraction"
"48.8433054"	"2.3580196"	"Forêts Tropicales Humides"	"attraction"
"48.8441758"	"2.3585181"	"Espagne"	"attraction"
"48.8440565"	"2.3582832"	"Balkans"	"attraction"
"48.8441366"	"2.3586465"	"Provence"	"attraction"
"48.8431839"	"2.3575411"	"Zone Arides des Déserts"	"attraction"
"48.8439389"	"2.3582750"	"Alpes"	"attraction"
"48.8429803"	"2.3568019"	"Histoire des Plantes"	"attraction"
"48.8455488"	"2.3588363"	"Petite Ferme"	"attraction"
"47.4838925"	"-3.1448734"	"Beg er Goalennec"	"viewpoint"
"47.6047452"	"-3.1347749"	"Lavoir"	"attraction"
"46.4589176"	"-1.7157199"	"Baie de Cayola"	"viewpoint"
"48.0096587"	"4.3444095"	"Point de vue"	"viewpoint"
"47.9799076"	"4.3737554"	"Point de vue"	"viewpoint"
"48.8441801"	"2.3598139"	"Panda roux"	"attraction"
"48.8454143"	"2.3591833"	"Oiseaux tropicaux"	"attraction"
"49.3757275"	"2.4198222"	"Henri Theillou"	"museum"
"45.6178570"	"4.8032410"	"Intersection Balade Grigny 1"	"viewpoint"
"45.6200030"	"4.8032230"	"Espace Pedagogique De Decouverte Des Milieux Humide"	"viewpoint"
"47.9183843"	"-3.3465046"	"Musée du vélo"	"museum"
"43.9396375"	"4.4501512"	"Point de Vue"	"viewpoint"
"48.7542252"	"-2.9311498"	"Point de Minard"	"attraction"
"46.0323979"	"1.0695256"	"Chapelle de Vaulry"	"viewpoint"
"48.7903749"	"2.5670175"	"Vallée du Morbras"	"viewpoint"
"43.7754113"	"6.3935730"	"Belvédere de Rancoumas"	"viewpoint"
"48.8403652"	"2.3414281"	"Musée du Service de Santé des Armées"	"museum"
"45.4344364"	"5.2700365"	"Moulin à Blé 19° siècle"	"attraction"
"49.8368094"	"1.1618583"	"Panorama sur la vallée de la Varenne"	"viewpoint"
"45.0674415"	"4.2823680"	"Le Panelier"	"attraction"
"47.9962490"	"-4.1023420"	"Musée des Beaux-Arts"	"museum"
"44.7999188"	"-1.1411728"	"Cité Ouvrière Le Corbusier"	"building"
"44.7999188"	"-1.1411728"	"Cité Ouvrière Le Corbusier"	"attraction"
"48.8197004"	"-3.0732867"	"La Roche aux Oiseaux"	"viewpoint"
"49.5441582"	"-1.8738255"	"EPR"	"viewpoint"
"48.0429516"	"7.1408942"	"Narrenstein"	"viewpoint"
"45.7504102"	"5.5563358"	"Roche Bidet"	"viewpoint"
"45.8287391"	"5.4617190"	"Rocher de Cuny"	"viewpoint"
"43.5329771"	"3.9323636"	"Musée du Train"	"museum"
"48.0330654"	"6.9467143"	"Les Champis"	"viewpoint"
"48.2050218"	"7.2970696"	"Kahlfelsen"	"viewpoint"
"47.0730187"	"6.6041686"	"Belvedere du mont Vouillot"	"viewpoint"
"47.2084710"	"0.0760935"	"Panorama sur la confluence Loire Vienne"	"viewpoint"
"44.9347147"	"2.4458622"	"Muséum des Volcans"	"museum"
"43.8463523"	"5.4182938"	"Borie"	"attraction"
"43.8477222"	"5.4213306"	"Borie"	"attraction"
"44.1402000"	"4.6935000"	"Visiatome"	"museum"
"48.0569211"	"-3.6539461"	"Gare de Guiscriff"	"museum"
"43.5313429"	"5.5785053"	"La Brèche des Moines"	"viewpoint"
"48.8499230"	"-0.5242993"	"Vélorail"	"attraction"
"43.1955690"	"5.7988558"	"École de Musique du Beausset"	"attraction"
"48.8705899"	"2.3500828"	"Choco-Story - Le musée gourmand du chocolat"	"museum"
"44.1053509"	"1.0811861"	"Calvaire"	"viewpoint"
"50.5070252"	"2.5561989"	"Terril n°12 (Usines de Labuissière Ouest)"	"viewpoint"
"46.0257275"	"-1.1681072"	"Pointe Saint-Eulard"	"viewpoint"
"45.5127839"	"-1.1288892"	"Musée d'art et d'archéologie"	"museum"
"44.5261634"	"2.2824725"	"Les mémoires de Cransac"	"museum"
"44.5627578"	"-0.0245730"	"Musée de l'Artisanat - Monuments en Allumettes"	"museum"
"46.9888847"	"0.9158192"	"Château de Betz"	"castle"
"46.9888847"	"0.9158192"	"Château de Betz"	"attraction"
"45.0845374"	"5.8020125"	"Panorama sur Vizille"	"viewpoint"
"49.1314030"	"6.7394041"	"Edelweiss"	"viewpoint"
"42.3051998"	"8.8779509"	"Cascade de Radule"	"attraction"
"47.3280766"	"1.3062994"	"Musée archéologique"	"museum"
"48.8940266"	"-0.2057577"	"Fontaine d'Arlette"	"attraction"
"48.8733087"	"2.3423149"	"Cabinet de curiosités"	"attraction"
"48.8119203"	"-0.3989476"	"Maison de l'Eau et de la Rivière"	"attraction"
"48.8146830"	"-0.3954501"	"Maison du Paysage"	"attraction"
"44.9020521"	"-0.6459742"	"Grottes artificielles"	"attraction"
"42.1171761"	"9.1100520"	"Cascade des Anglais"	"attraction"
"49.9008072"	"4.6884509"	"TP0509"	"viewpoint"
"49.9027807"	"4.6795668"	"TP0935"	"viewpoint"
"48.8441540"	"2.2472531"	"Musée-Jardin Paul Landowski"	"museum"
"47.5155724"	"-3.1516697"	"Point de vue Surf"	"viewpoint"
"48.0395709"	"7.5457548"	"Musée de l'Instrumentation Optique"	"museum"
"45.1976872"	"5.7313929"	"Musée archéologique Saint-Laurent"	"museum"
"47.7879863"	"0.4943073"	"Futaie des Clos"	"attraction"
"47.8326259"	"-2.6529945"	"Cote de cadoudal"	"viewpoint"
"48.0798635"	"7.3555565"	"Musée d'Unterlinden"	"museum"
"48.0736413"	"7.3587448"	"Museum d'Histoire Naturelle"	"museum"
"49.3246114"	"0.0139152"	"Marais de Villers"	"attraction"
"49.3160412"	"-0.0010566"	"Point de Vue"	"viewpoint"
"41.8191386"	"9.1167567"	"Rocher oscillant d'Anellu"	"attraction"
"44.3229552"	"6.1380839"	"Cascade"	"attraction"
"46.3593839"	"5.9062302"	"Le Chapeau de Gendarme"	"attraction"
"47.9941074"	"-4.3039380"	"Château de Guiguiffin"	"castle"
"47.9941074"	"-4.3039380"	"Château de Guiguiffin"	"attraction"
"43.7863898"	"4.1934943"	"Maison du Boutis"	"museum"
"42.4269016"	"3.1627496"	"Mirador"	"viewpoint"
"46.2647622"	"5.8692882"	"Borne au Lion"	"boundary_stone"
"46.2647622"	"5.8692882"	"Borne au Lion"	"attraction"
"43.9909017"	"6.3265608"	"Formations géologiques remarquables"	"attraction"
"43.9937390"	"6.2203311"	"Formations géologiques remarquables"	"attraction"
"42.8721690"	"0.3423457"	"Musée de la vallée d'Aure"	"museum"
"48.9087780"	"1.8493300"	"Musée Victor Aubert"	"museum"
"44.8914351"	"5.4312335"	"Grotte de la Luire"	"memorial"
"44.8914351"	"5.4312335"	"Grotte de la Luire"	"attraction"
"49.3755479"	"6.1428621"	"Vue sur Thionville"	"viewpoint"
"47.4999417"	"-3.1347665"	"Point de vue de Locmaria"	"viewpoint"
"45.8507938"	"3.5483622"	"Usine Ferrier"	"attraction"
"45.8505489"	"3.5499105"	"Forge Mondière"	"attraction"
"46.0921237"	"2.0559061"	"Pressoir"	"attraction"
"44.9799628"	"5.3326824"	"Combe laval"	"viewpoint"
"47.4661656"	"-2.2195446"	"Maquette du France"	"attraction"
"49.2792574"	"0.1095326"	"Butte Serrurier"	"viewpoint"
"48.2548589"	"4.7840036"	"Cellier aux Moines"	"museum"
"47.5050246"	"6.7958787"	"Pendule de Foucault"	"attraction"
"48.7292406"	"7.3227955"	"Grotte Saint-Vit"	"attraction"
"48.7237999"	"7.3374091"	"Château du Haut-Barr"	"viewpoint"
"48.7025582"	"7.3258644"	"Rocher de Brotsch"	"viewpoint"
"44.9696814"	"5.4102003"	"Maison du Paysan et du Vercors"	"museum"
"48.8629386"	"2.2890051"	"Cité de l'architecture et du patrimoine"	"museum"
"48.8618163"	"2.2873421"	"Musée de la Marine"	"museum"
"45.7639361"	"4.8275557"	"Musée Gadagne"	"museum"
"48.0221331"	"2.3267318"	"Musée St Sauveur"	"museum"
"44.1304387"	"4.6659286"	"Lavoir"	"attraction"
"48.4286705"	"-4.7853835"	"Abri tôle métro"	"battlefield"
"48.4286705"	"-4.7853835"	"Abri tôle métro"	"attraction"
"48.4139559"	"-4.7932187"	"Tobrouk R58"	"battlefield"
"48.4139559"	"-4.7932187"	"Tobrouk R58"	"attraction"
"48.4413539"	"-4.7781684"	"Casemate"	"battlefield"
"48.4413539"	"-4.7781684"	"Casemate"	"attraction"
"48.4131833"	"-4.7933681"	"Casemate pour canon"	"battlefield"
"48.4131833"	"-4.7933681"	"Casemate pour canon"	"attraction"
"48.4412432"	"-4.7780674"	"Tobrouk R58"	"battlefield"
"48.4412432"	"-4.7780674"	"Tobrouk R58"	"attraction"
"48.4146975"	"-4.7947495"	"Base canon"	"battlefield"
"48.4146975"	"-4.7947495"	"Base canon"	"attraction"
"48.4208255"	"-4.7913051"	"Casemate"	"battlefield"
"48.4208255"	"-4.7913051"	"Casemate"	"attraction"
"48.4220812"	"-4.7894103"	"Casemate"	"battlefield"
"48.4220812"	"-4.7894103"	"Casemate"	"attraction"
"48.4225950"	"-4.7884677"	"Tobrouk R58"	"battlefield"
"48.4225950"	"-4.7884677"	"Tobrouk R58"	"attraction"
"48.4145389"	"-4.7947877"	"Tobrouk R58"	"battlefield"
"48.4145389"	"-4.7947877"	"Tobrouk R58"	"attraction"
"50.7993214"	"2.4869833"	"Musée Départemental de Flandre"	"museum"
"44.1949897"	"6.2647986"	"Rocher Gassendi"	"viewpoint"
"48.8543025"	"7.3188567"	"Jardin"	"viewpoint"
"48.3728789"	"-3.9525140"	"Menez Kador"	"viewpoint"
"47.3047067"	"6.6036136"	"Ferme fleurie"	"attraction"
"44.3374350"	"5.0603999"	"Point de vue"	"viewpoint"
"44.6630472"	"-1.1644992"	"Casino"	"attraction"
"48.8117670"	"7.4511840"	"Bastberg"	"viewpoint"
"48.1264056"	"7.1602491"	"Musée du Val d'Orbey"	"museum"
"43.2851399"	"3.5105508"	"Le Petit Train du Cap d'Agde"	"attraction"
"43.7913000"	"6.3991498"	"Point Sublime Bely"	"viewpoint"
"50.2706215"	"2.8933605"	"Mémorial terre-neuvien à Monchy-le-Preux Newfoundland Memorial"	"memorial"
"50.2706215"	"2.8933605"	"Mémorial terre-neuvien à Monchy-le-Preux Newfoundland Memorial"	"attraction"
"42.9975635"	"-0.9861781"	"Erroimendy 1350m"	"viewpoint"
"48.3956315"	"-4.9591641"	"Statue de St Joseph"	"memorial"
"48.3956315"	"-4.9591641"	"Statue de St Joseph"	"attraction"
"43.4937771"	"6.3606448"	"Façade de l'auberge des Templiers"	"attraction"
"48.3929255"	"-4.9563937"	"Menhir"	"archaeological_site"
"48.3929255"	"-4.9563937"	"Menhir"	"attraction"
"48.3929281"	"-4.9562743"	"Menhir"	"archaeological_site"
"48.3929281"	"-4.9562743"	"Menhir"	"attraction"
"50.0650532"	"2.8538265"	"Gueudecourt Newfoundland Memorial"	"memorial"
"50.0650532"	"2.8538265"	"Gueudecourt Newfoundland Memorial"	"attraction"
"43.7050604"	"4.6637311"	"Abbaye de Montmajour"	"monastery"
"43.7050604"	"4.6637311"	"Abbaye de Montmajour"	"attraction"
"48.8489735"	"0.7299583"	"Château de Hermite"	"viewpoint"
"43.8995791"	"3.5154809"	"Belvedere de Blandas"	"viewpoint"
"43.7341376"	"6.4075175"	"Sommet du Chastillon"	"viewpoint"
"43.1566487"	"5.6840162"	"La pointe Fauconnière"	"viewpoint"
"44.1320950"	"3.2004595"	"Belvédère"	"viewpoint"
"44.2720800"	"3.6002700"	"Empreintes de dinosaures"	"attraction"
"44.3504298"	"4.4644963"	"Balcon des Gorges"	"viewpoint"
"49.3254439"	"6.0283568"	"Musée des Mines de Fer de Neufchef Amomferlor"	"museum"
"43.9979783"	"5.0568759"	"Maison du Costume Comtadin"	"museum"
"49.3385449"	"6.0348661"	"calvaire knutange"	"viewpoint"
"46.6604787"	"5.5562327"	"Le solitaire"	"viewpoint"
"42.2483701"	"9.0565038"	"Gorges de la Restonica"	"attraction"
"43.7864632"	"6.5721623"	"Grotte des Fées"	"viewpoint"
"48.6882721"	"5.8606855"	"Côte Barine"	"viewpoint"
"49.4419284"	"1.0775600"	"H2O"	"museum"
"43.5445524"	"5.4442365"	"Terrain des peintres (Cézanne)"	"viewpoint"
"42.1045630"	"9.5110530"	"Musée"	"museum"
"48.4210938"	"2.7197025"	"Rocher Éponge"	"attraction"
"45.0909657"	"6.0645698"	"Musée d'Huez en Oisans"	"museum"
"43.7573490"	"6.5387958"	"Aven"	"viewpoint"
"47.0127018"	"0.3241914"	"Musée de Richelieu"	"museum"
"46.8653563"	"6.4340801"	"La Pierre au Prêtre"	"attraction"
"46.6274147"	"4.4770507"	"Le Belvédère"	"viewpoint"
"45.2056862"	"5.5955423"	"Scialet aux Écritures"	"attraction"
"48.7642332"	"-0.2518758"	"Croisière Fluviale"	"attraction"
"48.8254616"	"7.4080193"	"Porte du Kaltor"	"attraction"
"48.8254820"	"7.4078655"	"Tour de l'ancien château médiéval"	"attraction"
"44.4819400"	"3.9357300"	"Belvedere de Chassezac"	"viewpoint"
"44.3199201"	"4.4119650"	"Aven d’Orgnac"	"attraction"
"43.2139069"	"0.0920188"	"Tâble d'orientation"	"viewpoint"
"46.1506021"	"-1.1506946"	"Musée Maritime"	"museum"
"47.3586963"	"3.3887096"	"Musée Auguste Grasset"	"museum"
"45.1520214"	"5.6060348"	"Bec de l’Aigle"	"viewpoint"
"49.0668746"	"7.3690020"	"Simserhof bloc 5 - Ligne Maginot"	"ruins"
"49.0668746"	"7.3690020"	"Simserhof bloc 5 - Ligne Maginot"	"attraction"
"44.6067366"	"3.2001169"	"Pic de Mus"	"viewpoint"
"46.7530998"	"5.6239908"	"Belvédère"	"viewpoint"
"43.5205965"	"6.6505981"	"Gorges du Blavet"	"viewpoint"
"45.1299540"	"5.8835197"	"L'Aiguille"	"viewpoint"
"48.6671804"	"-4.3716284"	"Meneham"	"attraction"
"46.0349151"	"4.0696051"	"Musée Déchelette"	"museum"
"44.8611608"	"1.8897617"	"Maison des Consuls"	"museum"
"48.3439995"	"-4.0520523"	"La Maison du Parc"	"museum"
"48.3015025"	"6.1356331"	"Maison du plus grand violoncelle du monde"	"museum"
"44.9651128"	"5.7592217"	"Pierre Percée"	"attraction"
"48.7831967"	"7.3706740"	"Borne Romaine"	"attraction"
"48.7807905"	"7.3693388"	"Rocher du Frohnberg"	"attraction"
"44.3892838"	"5.7917372"	"Gorges du Riou"	"attraction"
"45.5682619"	"5.9210064"	"Statue de la Sasson"	"memorial"
"45.5682619"	"5.9210064"	"Statue de la Sasson"	"attraction"
"47.3227933"	"5.0415509"	"La Chouette"	"attraction"
"48.7911953"	"7.3479843"	"Herzbruenel"	"attraction"
"46.2527000"	"6.5312427"	"L'Accroparc Bella Vallis"	"attraction"
"48.7753931"	"7.3619329"	"Fontaine des Enfants"	"attraction"
"48.7754971"	"7.3641743"	"Grotte aux Fées"	"attraction"
"48.0823674"	"7.1980542"	"Krappenfels"	"viewpoint"
"50.3818414"	"1.9899791"	"Musée de l'Abeille"	"museum"
"43.7191095"	"4.1481644"	"Musée du site d'Ambrussum"	"museum"
"47.1495610"	"6.6072088"	"La Roche du Prêtre"	"viewpoint"
"48.8370798"	"-1.6026316"	"Musée du Vieux Granville"	"museum"
"48.5793667"	"-0.3987743"	"Rocher Broutin"	"attraction"
"49.4265573"	"5.3804309"	"Ancienne forteresse de Jametz"	"ruins"
"49.4265573"	"5.3804309"	"Ancienne forteresse de Jametz"	"attraction"
"48.8203038"	"2.1109719"	"Ferme"	"attraction"
"48.8156756"	"2.1046237"	"Trianon-sous-Bois"	"attraction"
"47.0690237"	"3.9338727"	"Calvaire"	"viewpoint"
"43.9081614"	"5.1979068"	"Viewpoint to Gordes"	"viewpoint"
"48.7625739"	"4.5859819"	"Croix"	"wayside_cross"
"48.7625739"	"4.5859819"	"Croix"	"attraction"
"45.1174248"	"2.4979674"	"Chapelle Monolithique"	"attraction"
"45.1373050"	"2.4937916"	"Musée des Templiers"	"museum"
"44.1948842"	"3.1480003"	"Peyrelade Castle"	"viewpoint"
"48.8778152"	"2.1814442"	"Musée de Rueil-Malmaison"	"museum"
"48.7687921"	"7.2407756"	"Char d'Assaut"	"attraction"
"42.4784861"	"2.7569030"	"Salt dels Baussos"	"attraction"
"43.7019475"	"7.2797089"	"Museum d'Histoire Naturelle"	"museum"
"43.0602712"	"0.1477405"	"Rocher de la Peyrie"	"viewpoint"
"48.8519070"	"2.2652250"	"Fondation Le Corbusier"	"museum"
"48.8703234"	"2.2765175"	"Musée de la Contrefaçon"	"museum"
"48.8716440"	"2.2881063"	"Musée Dapper"	"museum"
"49.2258066"	"2.9759132"	"Cave du Diable"	"attraction"
"48.6263735"	"7.1788426"	"Col du Hohwalsch"	"viewpoint"
"44.9022536"	"-0.6465136"	"Cascade"	"attraction"
"46.1774610"	"5.7419015"	"Les Marmites de Géant"	"attraction"
"46.1779454"	"5.7413972"	"Les Marmites de Géant"	"attraction"
"44.1690542"	"-0.7773630"	"Maison du Meunier"	"building"
"44.1690542"	"-0.7773630"	"Maison du Meunier"	"attraction"
"44.1495113"	"-0.7467922"	"Musée de la Haute Lande"	"museum"
"44.1680919"	"-0.7833770"	"Salle d'exposition"	"museum"
"45.7593499"	"1.3008571"	"Loup"	"attraction"
"45.7599113"	"1.3070830"	"Girafe"	"attraction"
"45.7603641"	"1.3047388"	"Rhinocéros"	"attraction"
"45.7603716"	"1.3028344"	"Lion"	"attraction"
"45.7577555"	"1.3041106"	"Bison"	"attraction"
"45.2670523"	"4.6014308"	"Croix de Chirol"	"viewpoint"
"45.7597130"	"1.2995640"	"Pélican"	"attraction"
"45.7568237"	"1.3008245"	"Buffle d'eau"	"attraction"
"45.7591818"	"1.3012805"	"Mouton"	"attraction"
"45.7593389"	"1.3018358"	"Saïmiri"	"attraction"
"45.7600761"	"1.3046414"	"Antilope"	"attraction"
"44.1563517"	"1.7177706"	"Cirque de Bone"	"viewpoint"
"44.4487873"	"4.3222720"	"Point de vue sur les gorges de la Beaume"	"viewpoint"
"43.1934800"	"2.3446700"	"Belvédère d'Auriac"	"viewpoint"
"48.7217525"	"7.1287933"	"Vue sur le Canal"	"viewpoint"
"45.0519873"	"2.6692269"	"Piège à loup"	"yes"
"45.0519873"	"2.6692269"	"Piège à loup"	"attraction"
"47.4583643"	"0.8863207"	"Château de Valmer"	"castle"
"47.4583643"	"0.8863207"	"Château de Valmer"	"attraction"
"48.2039644"	"-4.5281151"	"Maison des Minéraux"	"museum"
"48.9213449"	"7.4877520"	"Château de Lichtenberg"	"castle"
"48.9213449"	"7.4877520"	"Château de Lichtenberg"	"attraction"
"44.5846294"	"6.0396891"	"La Brèche de Charance"	"viewpoint"
"44.5775327"	"6.0559223"	"Écomusée"	"museum"
"48.3266106"	"2.8392155"	"Roche du Saut"	"attraction"
"44.6808180"	"4.2672849"	"Passage des Voûtes"	"attraction"
"49.3601368"	"-0.8530627"	"Belvédère"	"viewpoint"
"47.1336857"	"-2.2458161"	"Le Sémaphore"	"museum"
"48.7327336"	"-3.1303919"	"Kerbrug"	"viewpoint"
"44.6413684"	"-1.2034050"	"Canon du Moulleau"	"cannon"
"44.6413684"	"-1.2034050"	"Canon du Moulleau"	"attraction"
"43.5920330"	"6.5367890"	"Banc"	"viewpoint"
"45.0860870"	"5.7305027"	"Musée d'autrefois"	"museum"
"44.4457789"	"0.4503383"	"Ferme Chaudron Magique"	"attraction"
"47.8494114"	"7.1151653"	"Rocher d'Ostein"	"viewpoint"
"47.8272956"	"7.0923707"	"Roche Albert"	"viewpoint"
"44.0958451"	"6.3936571"	"Clue de la Peine"	"attraction"
"48.8302877"	"2.3141843"	"Musée Adzak - Espace d'Art International"	"museum"
"48.8716204"	"2.2814131"	"Musée Arménien de France"	"museum"
"48.8677268"	"2.3223990"	"Musée Bouilhet-Christofle - Musée d'Orfèvrerie"	"museum"
"48.8522269"	"2.3350050"	"Musée-Librairie du Compagnonnage"	"museum"
"48.8476741"	"2.3140391"	"Musée Valentin Haüy"	"museum"
"48.8513629"	"2.3410046"	"Musée d'histoire de la Médecine"	"museum"
"48.3594701"	"-4.4358373"	"Marloux"	"viewpoint"
"48.8554427"	"2.3276941"	"Musée des Lettres et Manuscrits"	"museum"
"48.6690560"	"-4.2105664"	"hippocampe"	"monument"
"48.6690560"	"-4.2105664"	"hippocampe"	"attraction"
"48.8456499"	"2.3395974"	"Musée de Minéralogie"	"museum"
"48.8434624"	"2.3362665"	"Musée Moissan"	"museum"
"48.8718820"	"2.3312120"	"Bibliothèque-Musée de l'Opéra"	"museum"
"43.2187438"	"5.3964054"	"Signal Est de l'Homme Mort"	"viewpoint"
"44.9072037"	"3.9794172"	"Le Chouvel"	"viewpoint"
"44.4551753"	"5.6935246"	"Clue"	"attraction"
"48.8007175"	"2.1336899"	"Hôtel des Menus Plaisir"	"attraction"
"48.7489297"	"7.3404072"	"Rocher du Saut du Prince Charles"	"attraction"
"48.7477395"	"7.3333696"	"Schmüsbankele"	"viewpoint"
"48.7379376"	"7.3280726"	"Marienfels"	"viewpoint"
"48.7253237"	"7.3392038"	"Haut-Barr"	"viewpoint"
"44.3595687"	"2.4384466"	"Rocher de Nances"	"viewpoint"
"45.5187742"	"5.8143669"	"Belvédère du Mont Grêle"	"viewpoint"
"48.5134008"	"-1.5095877"	"ornitologic viewpoint"	"viewpoint"
"41.3851078"	"9.1490800"	"Le Gouvernail"	"fort"
"41.3851078"	"9.1490800"	"Le Gouvernail"	"attraction"
"43.7025726"	"3.5513610"	"Argileum"	"museum"
"44.4375820"	"2.5141463"	"Musée du Rouergue des Arts et Métiers traditionnels"	"museum"
"43.6035253"	"2.2417743"	"Musée Goya"	"museum"
"42.7414606"	"9.4617123"	"Tour de Miomo"	"yes"
"42.7414606"	"9.4617123"	"Tour de Miomo"	"attraction"
"42.2428242"	"8.6008433"	"Belvedère"	"viewpoint"
"47.3085376"	"4.9654541"	"Cadole"	"attraction"
"44.5464040"	"2.4791510"	"Kaymar"	"viewpoint"
"47.3210209"	"5.0347197"	"Espace d’art contemporain"	"museum"
"45.2892651"	"6.9124364"	"Espace Saint-Roch"	"museum"
"45.8110285"	"1.6598382"	"View Camping Lous-Suais Lake"	"viewpoint"
"47.4441256"	"0.3899385"	"Château de Champchevrier"	"castle"
"47.4441256"	"0.3899385"	"Château de Champchevrier"	"attraction"
"44.5135820"	"5.6381966"	"Sources de la Drôme"	"attraction"
"47.6571630"	"7.5470148"	"Blick aufs Kalkwerk"	"viewpoint"
"47.5411070"	"-0.1046174"	"Chapelle de la Vraie Croix"	"museum"
"50.4081007"	"3.4999556"	"Terril Sabatier"	"viewpoint"
"47.5414021"	"-0.1018237"	"Musée d’art et d’histoire de Baugé"	"museum"
"48.9694122"	"7.6190528"	"Camp Celtique du Ziegenberg"	"attraction"
"48.2448847"	"-4.2263366"	"Musée de l'école rurale"	"museum"
"48.9651861"	"7.6265469"	"Hauts de Lichtereck"	"viewpoint"
"41.7223177"	"8.7834805"	"Tour de Capannella"	"monument"
"41.7223177"	"8.7834805"	"Tour de Capannella"	"viewpoint"
"43.5123122"	"7.0462137"	"Les Îles de Lérins"	"viewpoint"
"48.0268362"	"-4.0586950"	"Gorges du Stangala"	"viewpoint"
"48.3013851"	"-3.9554619"	"Le loup"	"attraction"
"43.3382478"	"3.2149323"	"Musée du Biterrois"	"museum"
"45.4356769"	"4.3863663"	"Mémorial de la Résistance et de la Déportation de la Loire"	"museum"
"44.1051398"	"3.8855933"	"Musée des Vallées Cévenoles"	"museum"
"47.1804213"	"3.0194581"	"square eesplanade Pierre Barbier"	"viewpoint"
"48.6032657"	"-4.2861614"	"Calvaire de Kergoff Bras"	"wayside_cross"
"48.6032657"	"-4.2861614"	"Calvaire de Kergoff Bras"	"attraction"
"47.9514254"	"1.8760286"	"Atelier Typographique"	"museum"
"47.3936435"	"6.4967834"	"Musée de la Mémoire et de la Paix"	"museum"
"48.8748533"	"2.3537731"	"Le Manoir de Paris"	"attraction"
"48.4453340"	"-4.7830471"	"Beg ar Vir"	"viewpoint"
"47.7669599"	"6.7506281"	"Croix du Choléra"	"viewpoint"
"44.5172934"	"6.1549386"	"La Gyquière"	"viewpoint"
"48.8392711"	"-1.5988798"	"Casino"	"attraction"
"43.6927734"	"2.6885665"	"Roc des Ecus"	"viewpoint"
"43.9498088"	"4.8067750"	"Maison Jean Vilar"	"museum"
"43.9509826"	"4.8061963"	"Musée de l'Oeuvre"	"museum"
"48.5177627"	"1.6854090"	"Vélorails Du Pays Chartrain"	"attraction"
"47.3219063"	"5.0349547"	"Sarcophages époque mérovingienne"	"attraction"
"48.4467056"	"-4.7779475"	"Ancienne usine à soude"	"archaeological_site"
"48.4467056"	"-4.7779475"	"Ancienne usine à soude"	"attraction"
"49.3356006"	"2.4690315"	"Musée National Gadzart"	"museum"
"46.0298107"	"6.9769705"	"Ecuries voutées"	"attraction"
"47.0884762"	"-2.0506047"	"Trou d'Enfer"	"attraction"
"46.2308416"	"4.6230236"	"Vue sur le Château d'Arcis"	"viewpoint"
"43.2731794"	"5.3931148"	"Palais des arts"	"museum"
"48.6704294"	"-3.8644115"	"Point de vue"	"viewpoint"
"44.3892176"	"-1.1816658"	"Musée de l'Hydraviation"	"museum"
"44.3891659"	"-1.1809553"	"Musée des Traditions"	"museum"
"48.6013408"	"-4.2728141"	"Lavoir de Keradraon"	"archaeological_site"
"48.6013408"	"-4.2728141"	"Lavoir de Keradraon"	"attraction"
"48.5172054"	"-2.6744809"	"Maison de la Baie"	"museum"
"46.9465370"	"3.0706190"	"Pont Canal du Guétin"	"attraction"
"46.9221460"	"3.0554754"	"Écluse Ronde des Lorrains"	"attraction"
"48.5889128"	"-4.2876234"	"Croix de Keradanet"	"wayside_cross"
"48.5889128"	"-4.2876234"	"Croix de Keradanet"	"attraction"
"50.0548049"	"1.4279398"	"Musée des Traditions Vérrières"	"museum"
"47.4131973"	"0.9839918"	"Musée de l'Hôtel de Ville"	"museum"
"48.0638562"	"6.8439222"	"Observatoire de Mérelle"	"viewpoint"
"48.0622220"	"6.8623335"	"La Roche du Renard"	"viewpoint"
"50.6366637"	"3.0728035"	"Le Tripostal"	"museum"
"45.5485146"	"5.8331129"	"Col Saint-Michel"	"attraction"
"44.9646342"	"2.6416438"	"Rocher des Pendus"	"viewpoint"
"48.0467855"	"6.9166880"	"Tête de Grouvelin"	"viewpoint"
"47.8600213"	"7.0584813"	"Colline de la Vierge"	"viewpoint"
"47.8512097"	"7.0474092"	"Colline du Brandebel"	"viewpoint"
"47.8668594"	"7.0397917"	"Voie Romaine"	"viewpoint"
"48.7099049"	"7.9165693"	"Museumsschiff"	"museum"
"49.2857252"	"-0.4027848"	"Musée du Radar de Douvres"	"museum"
"43.0579402"	"3.0296505"	"La Vigie"	"viewpoint"
"43.0612174"	"3.0306713"	"Roc Saint-Antoine"	"viewpoint"
"47.8897385"	"6.8402386"	"Croix de Fresse"	"viewpoint"
"48.8962546"	"2.5853143"	"Moulin du Sempin"	"attraction"
"45.4964231"	"4.6456461"	"Les Roches de Marlin"	"viewpoint"
"45.4259922"	"-0.7579565"	"Panorama"	"viewpoint"
"42.4603740"	"2.0354163"	"Musée de la charcuterie de Cerdagne"	"museum"
"44.5965582"	"2.3949391"	"Panorama du Bancarel"	"viewpoint"
"44.4636044"	"1.3722717"	"Base de départ parapentes"	"viewpoint"
"48.8417972"	"2.2283155"	"Jardin anglais"	"attraction"
"48.8420919"	"2.2272132"	"Jardin français"	"attraction"
"48.8417354"	"2.2266365"	"Jardin japonais"	"attraction"
"50.3469521"	"1.8229234"	"Les Jardins de Valloires"	"attraction"
"48.6080438"	"-4.2968661"	"Croix de Keraïlis"	"wayside_cross"
"48.6080438"	"-4.2968661"	"Croix de Keraïlis"	"attraction"
"42.8912523"	"-0.1142641"	"Maison du parc national"	"museum"
"48.5676196"	"-4.2503309"	"Vestiges du 1er Château de Morizur (?);Motte Féodale de Morizur"	"ruins"
"48.5676196"	"-4.2503309"	"Vestiges du 1er Château de Morizur (?);Motte Féodale de Morizur"	"attraction"
"48.6067518"	"-4.3353207"	"Motté Féodale de Roudoushir"	"ruins"
"48.6067518"	"-4.3353207"	"Motté Féodale de Roudoushir"	"attraction"
"50.0749584"	"2.6499268"	"'the Danger Tree'"	"memorial"
"50.0749584"	"2.6499268"	"'the Danger Tree'"	"attraction"
"45.1624982"	"4.9529289"	"Panorama de Montchatin"	"viewpoint"
"46.3477537"	"-0.1295747"	"La Dame de Chambrille"	"viewpoint"
"43.6260588"	"5.2042188"	"Vivarium"	"attraction"
"48.6258062"	"-4.3477555"	"Dolmen de Kerbervas"	"attraction"
"48.6268365"	"-4.3193171"	"Croix et lavoir de Kermabon"	"wayside_cross"
"48.6268365"	"-4.3193171"	"Croix et lavoir de Kermabon"	"attraction"
"49.1180682"	"6.1716777"	"Abbaye Saint-Arnould"	"monument"
"49.1180682"	"6.1716777"	"Abbaye Saint-Arnould"	"attraction"
"48.0726193"	"6.8964074"	"Point de vue des Rochires"	"viewpoint"
"47.3483439"	"-3.1560746"	"Échauguette"	"viewpoint"
"41.4912830"	"8.9231579"	"Cap de Roccapina"	"viewpoint"
"49.0948920"	"1.4850183"	"Musée Alphonse Georges Poulain"	"museum"
"46.9924197"	"6.0104330"	"Belvédère des feuilles"	"viewpoint"
"44.7920229"	"4.2681106"	"Cascade du Ray-Pic"	"attraction"
"44.8040574"	"4.3026809"	"Table d'interprétation"	"viewpoint"
"46.5491490"	"5.7608690"	"Belvedere de la Scie"	"viewpoint"
"43.2803566"	"3.2809514"	"Musée d'Art Contemporain"	"museum"
"49.1230309"	"6.1764393"	"Moulin des Thermes"	"monument"
"49.1230309"	"6.1764393"	"Moulin des Thermes"	"attraction"
"48.5031346"	"2.0151845"	"Puits des Granges"	"attraction"
"47.7948323"	"0.3723552"	"Fontaine de la Coudre"	"attraction"
"48.2706280"	"7.2772933"	"Vieille Fontaine"	"attraction"
"43.2911923"	"1.2271543"	"Musée Abbal"	"museum"
"48.6091698"	"-4.2988490"	"Croix du Cimetière"	"wayside_cross"
"48.6091698"	"-4.2988490"	"Croix du Cimetière"	"attraction"
"47.3451610"	"1.4800045"	"Château de Chémery"	"castle"
"47.3451610"	"1.4800045"	"Château de Chémery"	"attraction"
"44.6232398"	"2.2675256"	"Point de vue"	"viewpoint"
"43.5673862"	"1.4728592"	"Mig 15"	"attraction"
"48.0775651"	"6.8419755"	"Roche Morand"	"viewpoint"
"48.8737978"	"2.3851825"	"Vue sur la tour Eiffel"	"viewpoint"
"50.4810304"	"2.5807713"	"Terril n°9 (2 bis de Bruay Ouest)"	"viewpoint"
"43.5889001"	"1.4566916"	"Musée de La Résistance et de la Déportation"	"museum"
"47.1639549"	"0.2373037"	"Vue sur le château"	"viewpoint"
"43.7514143"	"4.9422796"	"Arboretum du Badon"	"viewpoint"
"43.6571640"	"4.6209947"	"Pont van Gogh"	"viewpoint"
"48.6434867"	"-1.4257561"	"Pointe de Roche Torin"	"viewpoint"
"47.0366436"	"6.4123334"	"Le Crêt Monniot"	"viewpoint"
"47.3615970"	"4.9910760"	"Point de vue : Agglomération de Dijon"	"viewpoint"
"48.8533658"	"2.3493036"	"Tours de la Cathédrale"	"museum"
"47.6454973"	"5.5128220"	"Notre-Dame du Renouveau"	"wayside_shrine"
"47.6454973"	"5.5128220"	"Notre-Dame du Renouveau"	"viewpoint"
"42.4585592"	"2.8592134"	"Fort de Bellegarde"	"fort"
"42.4585592"	"2.8592134"	"Fort de Bellegarde"	"attraction"
"42.4706924"	"2.7943724"	"Mas Borrec"	"ruins"
"42.4706924"	"2.7943724"	"Mas Borrec"	"attraction"
"42.4826755"	"2.8423901"	"Ruines Romaines"	"attraction"
"42.4815267"	"2.8397299"	"Ruins"	"attraction"
"46.5090495"	"2.7131487"	"Château d'Hérisson"	"castle"
"46.5090495"	"2.7131487"	"Château d'Hérisson"	"attraction"
"43.5696871"	"4.5052063"	"Domaine Paul Ricard de Méjanes"	"attraction"
"43.6811419"	"4.6313300"	"Porte de la Cavalerie"	"city_gate"
"43.6811419"	"4.6313300"	"Porte de la Cavalerie"	"attraction"
"48.1051823"	"-1.6752968"	"Espace des sciences"	"museum"
"45.7651988"	"4.8360925"	"La cité de l'eau"	"museum"
"46.1890424"	"4.6289448"	"La Terrasse de Chiroubles"	"viewpoint"
"43.8416004"	"6.6027133"	"Vue sur la vallée"	"viewpoint"
"45.8956404"	"6.0381684"	"Les Gorges du Fier"	"museum"
"43.3263892"	"5.3583200"	"Exposition sur la réparation navale"	"museum"
"47.5411067"	"-2.8720796"	"Butte de César"	"viewpoint"
"44.3187457"	"4.4122108"	"Orgnac Grand Site de France"	"attraction"
"46.7866376"	"4.4329127"	"Marteau-Pilon"	"attraction"
"43.4764246"	"6.1803295"	"Porte de Lorgues"	"attraction"
"43.7319387"	"7.4139886"	"Musée d'Anthropologie Préhistorique"	"museum"
"44.0459199"	"6.8443946"	"Gorges de Daluis"	"attraction"
"45.1945031"	"5.7782929"	"Jupiter"	"attraction"
"47.6217637"	"-2.8136856"	"Le Vachteuil"	"viewpoint"
"49.4498444"	"0.2707928"	"Maison de la Réserve"	"viewpoint"
"43.4843310"	"-1.5709149"	"Rocher de la Vierge"	"viewpoint"
"48.3396242"	"-4.3305675"	"Pointe de Rostiviec"	"viewpoint"
"45.5349065"	"-0.9085933"	"Musée de l'histoire de Talmont"	"museum"
"43.1248242"	"6.0128698"	"Sommet du rocher de La Garde"	"viewpoint"
"48.8861105"	"2.3431223"	"Parvis du Sacré-Cœur"	"viewpoint"
"48.8619948"	"2.2887325"	"Esplanade du Trocadéro"	"viewpoint"
"43.7875572"	"6.8464610"	"Col de Castellaras"	"viewpoint"
"43.8002555"	"7.4559367"	"web-cam"	"viewpoint"
"43.8201444"	"7.4593117"	"Col de Verroux"	"memorial"
"43.8201444"	"7.4593117"	"Col de Verroux"	"viewpoint"
"43.8276463"	"7.4473554"	"Fort du Mont Ours"	"viewpoint"
"43.8162705"	"7.4593804"	"Pointe du Siricocca"	"viewpoint"
"43.7431511"	"7.4303078"	"Musee National"	"museum"
"42.5036430"	"9.3727510"	"cork oak"	"attraction"
"47.8330704"	"-1.2920316"	"Refuge à Papillons"	"attraction"
"43.8698729"	"5.1462627"	"Musée de la Lavande"	"museum"
"49.9423097"	"4.0894077"	"Cascade de Blangy"	"attraction"
"43.1505076"	"1.3933421"	"Musée Pierre Bayle"	"museum"
"44.5144200"	"5.9945126"	"Table d'orientation"	"viewpoint"
"48.0909016"	"6.9073389"	"La Roche des Bruyères"	"viewpoint"
"48.7235076"	"-0.9821716"	"Ecomusée de la Sée"	"museum"
"46.9226823"	"-0.7509703"	"Musée du BHRAM"	"museum"
"48.3479790"	"0.1337706"	"Porte Saint-Rémy"	"attraction"
"50.7246547"	"1.6095944"	"Casa San Martín"	"museum"
"45.7745536"	"4.8350046"	"Le Gros Caillou"	"attraction"
"43.3969726"	"3.4173305"	"Cloître"	"attraction"
"43.3953919"	"3.4175128"	"Le Fort"	"viewpoint"
"49.0232479"	"7.5511056"	"Rocher de l'Erbsenfelsen"	"attraction"
"48.9585179"	"7.4072061"	"Croix Stoffel"	"wayside_cross"
"48.9585179"	"7.4072061"	"Croix Stoffel"	"attraction"
"48.7571736"	"-1.5718040"	"La Croix Paqueray"	"viewpoint"
"48.7488650"	"-1.5717816"	"La Cabane Vauban"	"viewpoint"
"49.5645926"	"3.6295579"	"Souterrains"	"attraction"
"48.5729096"	"7.3247044"	"Rocher du Pfaffenlapp"	"viewpoint"
"45.0388943"	"4.5198504"	"Ancien Château de Rochebloine"	"ruins"
"45.0388943"	"4.5198504"	"Ancien Château de Rochebloine"	"attraction"
"43.2682616"	"2.7175524"	"Croisières du Midi - Bateaux de promenades"	"attraction"
"43.2657634"	"2.9039035"	"Bibliothèque Le Trouve Tout du Livre"	"attraction"
"43.1420458"	"3.0092656"	"Société Nautique de Narbonne - Ecole Française de Voile"	"attraction"
"45.2243048"	"5.8844370"	"découverte grésivaudan"	"viewpoint"
"43.2439295"	"2.1130646"	"Village circulaire de Bram"	"attraction"
"43.3112439"	"2.2147832"	"Musée des Arts et Métiers du Livre"	"museum"
"43.0696620"	"2.2220895"	"Le jardin aux plantes parfumées La Bouichère"	"attraction"
"43.0920336"	"2.8122180"	"La Miellerie des Clauses"	"attraction"
"43.7113442"	"5.0713710"	"ancienne carrière"	"attraction"
"49.3556577"	"6.5643301"	"Keltenhaus"	"attraction"
"48.8375359"	"7.3913376"	"L Arche de Grès"	"attraction"
"47.8586799"	"7.1769410"	"Kommanfeu Stein"	"attraction"
"48.0971618"	"6.8000161"	"Croix Délon"	"wayside_cross"
"48.0971618"	"6.8000161"	"Croix Délon"	"attraction"
"48.0939877"	"6.7969193"	"Croix de Saucefaing"	"wayside_cross"
"48.0939877"	"6.7969193"	"Croix de Saucefaing"	"attraction"
"48.0598550"	"6.8384923"	"source ferrugineuse"	"attraction"
"49.1346645"	"2.5710187"	"Le Grand Splatch"	"attraction"
"48.0883694"	"6.7990201"	"Four à cendres"	"archaeological_site"
"48.0883694"	"6.7990201"	"Four à cendres"	"attraction"
"48.0894878"	"6.8154174"	"Four à cendres"	"archaeological_site"
"48.0894878"	"6.8154174"	"Four à cendres"	"attraction"
"46.8953746"	"5.7990566"	"Le Dérochoir"	"viewpoint"
"47.3812468"	"-0.1085601"	"L'Hydronef"	"museum"
"48.0957385"	"6.8847086"	"Roche du Corbeau"	"viewpoint"
"48.9901391"	"1.7194536"	"Musée de l'Hôtel Dieu"	"museum"
"45.8401717"	"5.6084058"	"Point de Vue"	"viewpoint"
"47.8735015"	"-3.5456362"	"Le Presidial"	"museum"
"48.7025881"	"7.6978798"	"Mirador de chasse"	"viewpoint"
"43.6667751"	"6.9192659"	"Le site du chêne de l'empereur"	"viewpoint"
"43.9949091"	"3.0937272"	"Vue de Lapanouse de Cernon"	"viewpoint"
"49.2994270"	"6.0519190"	"Beninfo"	"viewpoint"
"46.9638761"	"5.8856091"	"Poupet"	"viewpoint"
"46.8636080"	"6.0203089"	"Belvédère des Chérards"	"viewpoint"
"48.7761427"	"1.8054979"	"Maison de Maurice Ravel, actuellement musée"	"monument"
"48.7761427"	"1.8054979"	"Maison de Maurice Ravel, actuellement musée"	"museum"
"48.0546232"	"6.8830764"	"Belvédère Émile André"	"viewpoint"
"45.2771534"	"6.3452287"	"Musée des costumes"	"museum"
"45.5948620"	"4.3284951"	"Les Trois Croix"	"viewpoint"
"45.0606788"	"5.3441687"	"Musée de l'Eau"	"museum"
"48.8428483"	"2.2271162"	"Marais"	"attraction"
"44.4650740"	"1.6685804"	"Rocher de La Popie"	"viewpoint"
"43.7468860"	"7.1436043"	"Panorama"	"viewpoint"
"48.8547617"	"7.3624722"	"Rocher du Rehkopf"	"attraction"
"43.6152046"	"1.4678725"	"Mirage III"	"attraction"
"49.1136520"	"6.1173321"	"Point de vue"	"viewpoint"
"44.4928613"	"6.3441806"	"Les Demoiselles Coiffées"	"attraction"
"50.4601278"	"2.9841740"	"Terril 110"	"viewpoint"
"45.5951617"	"6.1610210"	"Le Gros Fayard"	"attraction"
"47.2998286"	"-1.5127011"	"Musée de l'Erdre"	"museum"
"48.6510285"	"-0.9478206"	"Ancien lavoir"	"attraction"
"45.0199469"	"1.0745560"	"Côte De Jor"	"viewpoint"
"42.8510403"	"1.6000661"	"Rêve et magie du rail"	"museum"
"48.6888782"	"-4.0777111"	"Moguériec km 0 vers Saint-Jacques-de-Compostelle"	"attraction"
"45.6630605"	"4.7115351"	"Fontaine à l'eau ferrugineuse"	"attraction"
"49.7727200"	"4.7214458"	"Musée de l'Ardenne"	"museum"
"45.7702868"	"4.8101303"	"Tour des Deux Amants"	"viewpoint"
"43.8902196"	"5.8429721"	"Musée de l'Olivier de Volx"	"museum"
"45.2890702"	"6.3333444"	"Croix du Sapey"	"viewpoint"
"48.2883369"	"-4.2768600"	"Cimetière des bateaux"	"attraction"
"42.8707144"	"-0.2682060"	"Cascade"	"viewpoint"
"48.6143852"	"-1.0083412"	"Les trois ponts"	"viewpoint"
"47.8212790"	"7.1393822"	"Hirnlestein"	"viewpoint"
"43.5953370"	"1.4430488"	"Fonderie de canons de Toulouse"	"attraction"
"45.0249845"	"3.5767386"	"Rocher de Bounou"	"attraction"
"49.2201708"	"-2.2222291"	"Wild Orchid Field"	"attraction"
"44.4795486"	"4.2393614"	"Musée de la Châtaigneraie"	"museum"
"44.2776941"	"5.7927906"	"Gorges de la Méouge"	"viewpoint"
"48.7736995"	"3.3572663"	"La Pierre aux Fées"	"viewpoint"
"47.4034802"	"-0.5441972"	"La Roche de Mûrs"	"viewpoint"
"49.1815754"	"-2.1097799"	"Maritime Museum"	"museum"
"46.6602081"	"3.4764344"	"Moulin Méchin"	"museum"
"49.2007568"	"-2.0641153"	"La Houge Bie"	"museum"
"43.7367892"	"6.3476600"	"La falaise des Cavaliers"	"viewpoint"
"44.7820145"	"-0.4115399"	"Maison de la Poterie"	"museum"
"47.0583944"	"-0.8807128"	"Musée d’art et d’histoire"	"museum"
"45.5900067"	"1.7234762"	"Maison de l'Arbre"	"museum"
"49.1671761"	"-2.1693174"	"Noirmont Point"	"viewpoint"
"44.4458496"	"3.1109830"	"Musée Jean Boudou"	"museum"
"44.5992676"	"-1.2056280"	"Dune du Pilat"	"viewpoint"
"46.6753297"	"5.5537223"	"Maison natale de Rouget de Lisle"	"museum"
"48.4251302"	"7.2121300"	"Mont Saint-Jean"	"viewpoint"
"46.6614605"	"5.5607974"	"La grosse roche"	"viewpoint"
"49.2036052"	"-2.0196548"	"Jeffrey's Leap"	"viewpoint"
"48.3190519"	"2.0896603"	"Centre Culturel de Méréville"	"museum"
"42.6785635"	"0.2882681"	"Border España-France"	"viewpoint"
"46.6463989"	"-1.0659142"	"Belvédere sur le lac"	"viewpoint"
"49.4194177"	"2.8309900"	"Musée de la Voiture de Compiègne"	"museum"
"49.4188454"	"2.8301960"	"Musée Impérial de Compiègne"	"museum"
"43.4215523"	"1.8755309"	"Mémorial Bûcher 1211"	"memorial"
"43.4215523"	"1.8755309"	"Mémorial Bûcher 1211"	"viewpoint"
"43.4870379"	"2.7573734"	"Plan de la Gascagne"	"viewpoint"
"47.6698642"	"5.4685060"	"Vierge de Leffond"	"viewpoint"
"46.1285923"	"4.4101964"	"Notre-Dame de la Rochette"	"viewpoint"
"43.9450068"	"4.9857888"	"Château de Thouzon"	"viewpoint"
"43.9302815"	"4.9713612"	"Musée Pierre Salinger"	"museum"
"46.4970517"	"-1.7768109"	"Musée de l'abbaye Sainte-Croix"	"museum"
"48.6176551"	"7.5125800"	"Aire de la Porte des Vins d'Alsace"	"attraction"
"48.3875968"	"5.8667103"	"La Vierge"	"viewpoint"
"43.8969758"	"1.8960647"	"Musée du Vin"	"museum"
"43.8949812"	"1.8980683"	"Musée des Beaux-Arts"	"museum"
"43.7309642"	"6.3868444"	"Pont de l'Artuby"	"viewpoint"
"45.0547856"	"4.1308813"	"Le Testavoyre"	"viewpoint"
"43.8834835"	"7.3615857"	"Musée des Vieux-Outils"	"museum"
"43.8836381"	"7.3614140"	"Musée de La Crèche"	"museum"
"45.0174230"	"2.6671632"	"Archange Saint-Michel"	"viewpoint"
"49.1999369"	"-2.0180713"	"Caesar's Fort"	"viewpoint"
"50.6818478"	"3.0586786"	"Butte du Petit Paradis"	"viewpoint"
"48.8118207"	"2.3724833"	"Le Belvédère Trans 305"	"viewpoint"
"44.9505293"	"4.2028067"	"La Maison du Fin Gras"	"museum"
"49.2242887"	"-2.1357778"	"Hamptonne"	"museum"
"44.1599055"	"5.4193955"	"Point de vue de la dalle"	"viewpoint"
"46.3751076"	"6.4775348"	"Ecomusée de la Pêche et du Lac"	"museum"
"45.4352760"	"4.3888032"	"Musée du vieux Saint-Etienne"	"museum"
"47.8800739"	"-3.5324445"	"Point de vue"	"viewpoint"
"45.7685623"	"6.2317542"	"La Serraz"	"viewpoint"
"43.0610954"	"0.4750451"	"Calvaire du Mont-Arès"	"wayside_cross"
"43.0610954"	"0.4750451"	"Calvaire du Mont-Arès"	"attraction"
"47.6649475"	"7.1816858"	"Puits à balancier"	"yes"
"47.6649475"	"7.1816858"	"Puits à balancier"	"attraction"
"49.2340896"	"-2.2302743"	"La Thiebaut"	"viewpoint"
"47.2648503"	"0.5027571"	"La Vallée Troglodytique des Goupillières"	"attraction"
"44.3206099"	"6.9395245"	"Arc de Tortisse"	"attraction"
"47.1761186"	"3.6202685"	"Acti Vital - Centre de Plein Air et de Loisirs"	"attraction"
"50.0680821"	"4.8489619"	"Fontaine"	"attraction"
"44.8221647"	"4.5477291"	"Pié Lafont"	"viewpoint"
"46.1858145"	"3.1618892"	"Le musée de Charroux"	"museum"
"48.3775670"	"-4.4915801"	"Belvédère de la Marina du Château"	"viewpoint"
"44.7993527"	"4.7796671"	"Fontaine Giroud"	"attraction"
"46.8063140"	"1.0431999"	"Musée archéologique"	"museum"
"43.5299245"	"6.1487810"	"Habitats Troglodytes dans le Rocher de Tuf"	"attraction"
"44.9220211"	"2.8356857"	"lavoir"	"attraction"
"47.5659548"	"3.6486800"	"Les rochers du Saussois"	"attraction"
"45.6840808"	"3.3195309"	"Vue Panoramique du Plateau de Notre-Dame de Roche"	"viewpoint"
"45.5945906"	"5.9323412"	"Belvédère Croix Rouge"	"viewpoint"
"45.6848549"	"3.2943059"	"Lassias"	"viewpoint"
"43.7747355"	"7.5057931"	"Musée Jean Cocteau - Collection Severin Wunderman"	"museum"
"49.3584245"	"-1.1190201"	"Pointe du Grouin"	"viewpoint"
"45.7842245"	"0.1238876"	"Donjon de Montignac"	"viewpoint"
"48.4431278"	"-4.7792661"	"Point de vue : Ouessant est à 18 km vers l'ouest"	"viewpoint"
"48.7338768"	"1.3680496"	"Musée Marcel Dessal"	"museum"
"50.1039662"	"1.4480055"	"Ault"	"viewpoint"
"50.1866461"	"1.6371370"	"Musée Picarvie"	"museum"
"49.2480986"	"-2.1049842"	"Highest Point"	"viewpoint"
"45.2722489"	"0.1712931"	"Église Souterraine Monolithe Saint-Jean"	"ruins"
"45.2722489"	"0.1712931"	"Église Souterraine Monolithe Saint-Jean"	"attraction"
"48.0701929"	"-2.1726029"	"Centre Arthurien"	"museum"
"43.2112287"	"5.3523250"	"Calanque de Callelongue"	"attraction"
"43.3212920"	"5.3898574"	"Musée du savon de Marselle"	"museum"
"46.4722481"	"-1.7467358"	"Le Puits d'Enfer"	"viewpoint"
"46.1926077"	"3.7339564"	"Musée de l'école"	"museum"
"45.9427227"	"-1.3065839"	"Le Musée de l'Ile d'Oléron"	"museum"
"43.2266296"	"5.3645366"	"Trou de la Lune"	"viewpoint"
"46.5371000"	"6.1386640"	"Musée de la boissellerie"	"museum"
"45.4821363"	"5.9138687"	"Belvedère"	"viewpoint"
"45.5530041"	"6.9677909"	"glacier inférieur des balmes"	"viewpoint"
"43.6853032"	"2.9622416"	"La Croix de Mounis"	"wayside_cross"
"43.6853032"	"2.9622416"	"La Croix de Mounis"	"attraction"
"47.8684221"	"7.1566065"	"Kaserne II"	"attraction"
"47.4808044"	"6.6763638"	"Acroland Montenois"	"attraction"
"47.7431376"	"-3.1172941"	"Fontaine Saint-Maurille"	"attraction"
"48.5695777"	"4.6936342"	"Observatoire de l'étang des Landres"	"viewpoint"
"44.8180086"	"0.0696127"	"Belvédère de la Dordogne"	"viewpoint"
"48.2924349"	"7.4244771"	"Banc de l'impératrice"	"viewpoint"
"48.2802199"	"7.4102110"	"Borne milliaire romaine"	"viewpoint"
"44.5288851"	"3.1719132"	"Observatoire"	"viewpoint"
"47.6124221"	"-2.7056630"	"Observatoire Marais de Séné"	"viewpoint"
"43.4412009"	"5.3788631"	"Musée Edgar Mélik"	"museum"
"43.7108489"	"2.6339016"	"Le Gourp Fumant"	"attraction"
"48.7771186"	"7.3546275"	"Wasserfallfelsen"	"attraction"
"46.7904087"	"1.2003782"	"Maison de la Nature et de la Réserve"	"museum"
"43.7235526"	"4.8044901"	"Carte de France de la Pierre de Taillle"	"attraction"
"47.8622782"	"7.1618709"	"Bischofshut"	"attraction"
"47.8615559"	"7.1619658"	"Ziegelruckenstollen"	"attraction"
"47.8597548"	"7.1639826"	"Feste Rohrburg"	"attraction"
"44.6664967"	"6.0566326"	"N.D. de bois vert"	"viewpoint"
"48.8018426"	"-3.0296068"	"Mémoire d'Islande"	"museum"
"45.8739383"	"1.9298619"	"Le Rocher du Diable"	"viewpoint"
"45.8747323"	"1.9330125"	"La Rigole du Diable"	"viewpoint"
"45.5380816"	"4.3209871"	"La Ferme Foréziene"	"museum"
"47.9094954"	"-4.0720596"	"Fontaine et Calvaire du Drennec"	"wayside_cross"
"47.9094954"	"-4.0720596"	"Fontaine et Calvaire du Drennec"	"attraction"
"48.0669204"	"-0.7697850"	"La Perrine"	"viewpoint"
"46.7557902"	"6.2559991"	"Belvédêre des Deux Lacs"	"viewpoint"
"47.2796264"	"4.2298054"	"Musée Pompon"	"museum"
"47.5951000"	"3.6375980"	"Bellevue"	"viewpoint"
"45.1060591"	"5.5987487"	"Croix des suifs"	"viewpoint"
"50.9961655"	"2.3661898"	"Palais de l'Univers et des Sciences"	"museum"
"44.2631256"	"-0.5171912"	"Ancien atelier de produits résineux"	"museum"
"45.9639304"	"6.4400414"	"Cascade mystérieuse"	"viewpoint"
"48.7588695"	"4.6281889"	"Croix"	"wayside_cross"
"48.7588695"	"4.6281889"	"Croix"	"attraction"
"48.7467864"	"4.6261874"	"Calvaire"	"wayside_cross"
"48.7467864"	"4.6261874"	"Calvaire"	"attraction"
"49.6817859"	"4.9754729"	"Maison de la derniere Cartouche"	"museum"
"48.7634869"	"5.5893350"	"Musée de la Céramique et de l'Ivoire"	"museum"
"42.4364819"	"2.0026983"	"Le Musée de Cerdagne"	"museum"
"44.7962254"	"6.9597397"	"Collet de Gilly"	"viewpoint"
"44.4771871"	"1.5816681"	"Mémorail"	"museum"
"48.8949133"	"7.4091701"	"Point de Vue Est Englishberg"	"viewpoint"
"49.6060032"	"5.0749863"	"Musée du feutre"	"museum"
"45.5271911"	"3.3392688"	"Orgues basaltiques"	"attraction"
"47.6556063"	"3.7055551"	"Panorama d'Accolay"	"viewpoint"
"48.2122743"	"-4.2474648"	"Hielc'h"	"viewpoint"
"46.1884699"	"-1.3247991"	"Maison du Platin"	"museum"
"46.4435012"	"-1.4651343"	"Dolmens de la Savatole"	"archaeological_site"
"46.4435012"	"-1.4651343"	"Dolmens de la Savatole"	"attraction"
"43.6314535"	"6.8097314"	"Lavoir"	"attraction"
"44.2311715"	"6.2583270"	"Les courants fossiles"	"attraction"
"45.8939426"	"1.8484808"	"Meule à chanvre"	"attraction"
"45.8618595"	"1.7990520"	"Cascade des Jarrauds"	"viewpoint"
"45.7628424"	"0.2792514"	"Grande Fosse"	"viewpoint"
"46.0337097"	"1.5684487"	"Vestiges archéologiques de monuments gallo-romains du Puy-de-Jouer"	"attraction"
"43.5598360"	"6.2333685"	"Terra Rossa"	"museum"
"45.4136279"	"3.2170194"	"Musée du jouet cheval"	"museum"
"50.6391909"	"3.0352871"	"Maison Folie Le Colysée"	"museum"
"45.5611748"	"2.8026710"	"Pic du Capucin"	"viewpoint"
"42.6866075"	"2.6210651"	"Les Orgues d'Ille-sur-Têt"	"attraction"
"47.4698839"	"-3.0815200"	"Pointe du Conguel"	"viewpoint"
"48.8052832"	"-3.5718508"	"Le sommet de la lande"	"viewpoint"
"44.3948371"	"4.1733108"	"Bois de Païolive"	"viewpoint"
"45.9872757"	"1.8650291"	"Chute du Poirier"	"viewpoint"
"46.4575466"	"-1.4450350"	"Deux menhirs du Plessis"	"archaeological_site"
"46.4575466"	"-1.4450350"	"Deux menhirs du Plessis"	"attraction"
"48.5631803"	"-1.9650369"	"Mont Garrot"	"viewpoint"
"43.9218251"	"5.4373627"	"Manège des ocres"	"attraction"
"44.1829793"	"4.4023350"	"Les Concluses de Lussan"	"attraction"
"44.4905434"	"6.2029946"	"Salle de bal des Demoiselles Coiffées"	"attraction"
"44.2513686"	"3.4396987"	"Chevaux de Przewalski"	"attraction"
"46.2442828"	"5.9838905"	"Sources de l'Allemogne"	"viewpoint"
"43.1609621"	"2.5545493"	"Alaric"	"attraction"
"46.0018015"	"3.7912038"	"Pierre Druidique"	"attraction"
"50.3847982"	"3.2463179"	"Point de vue sur plan d'eau"	"viewpoint"
"44.3224108"	"3.0713767"	"Musée municipal archéologique"	"museum"
"43.8825389"	"0.4030015"	"Ancien moulin à vent"	"attraction"
"45.5352941"	"4.5532330"	"Pierre de Chagnon"	"boundary_stone"
"45.5352941"	"4.5532330"	"Pierre de Chagnon"	"attraction"
"43.5579915"	"6.9903940"	"La Croix des Gardes"	"viewpoint"
"48.6813506"	"-3.6189237"	"ancien point de vue"	"viewpoint"
"48.0621894"	"6.9832644"	"La Roche du Diable"	"viewpoint"
"43.8835822"	"6.5494093"	"Ville"	"ruins"
"43.8835822"	"6.5494093"	"Ville"	"attraction"
"46.1455626"	"1.8862733"	"Puy de Gaudy"	"viewpoint"
"48.6919459"	"4.5604933"	"Monument aux 126e et 326e Régiment d'Infanterie du Mont Moret"	"memorial"
"48.6919459"	"4.5604933"	"Monument aux 126e et 326e Régiment d'Infanterie du Mont Moret"	"attraction"
"48.3028395"	"-0.6179027"	"Musée du Château de Mayenne"	"museum"
"46.7641736"	"4.6913816"	"Mont Avril"	"viewpoint"
"44.1099052"	"3.1011138"	"Pouncho d'Agast"	"viewpoint"
"48.0686965"	"6.8798498"	"La Roche du Rain"	"viewpoint"
"48.3199519"	"-3.4229922"	"Maison du patrimoine"	"museum"
"47.9117429"	"-4.0761917"	"parc du manoir de Squividan"	"attraction"
"46.8478841"	"4.6879924"	"Point de vue de la Croix Chaumont"	"viewpoint"
"49.4734193"	"6.0816211"	"Pomhouse"	"museum"
"47.0820584"	"6.7003033"	"Belevedère des taillards"	"viewpoint"
"50.9523473"	"1.8534391"	"Les Bourgeois de Calais"	"attraction"
"47.8351966"	"-3.5406516"	"La chaire de l'évêque"	"attraction"
"46.9924550"	"-0.3890895"	"Site de Grifférus"	"viewpoint"
"44.7551856"	"3.9727116"	"L'auberge Rouge de Peyrebelle"	"attraction"
"46.1829838"	"2.4876057"	"Reste des Thermes"	"attraction"
"48.4020943"	"2.6993893"	"Escalier Louis XIII"	"attraction"
"46.1845437"	"2.3128406"	"Affût des Hérons"	"viewpoint"
"46.1822158"	"2.3075400"	"Grand Affût"	"viewpoint"
"46.1691407"	"2.3773385"	"La Tardes"	"viewpoint"
"46.1794793"	"2.3220664"	"Presqu'île des Sables"	"viewpoint"
"46.1583253"	"5.6145163"	"Belvedere de la Colonne"	"viewpoint"
"48.0329134"	"6.6740806"	"Saut de la Cuve"	"attraction"
"43.1919856"	"2.7047131"	"Roc dal Mignounet"	"viewpoint"
"45.8950297"	"6.7065341"	"Cascade des Thermes"	"viewpoint"
"45.8949823"	"6.7074373"	"Passerelle des Thermes"	"viewpoint"
"46.9750478"	"0.6014895"	"Château des Ormes"	"castle"
"46.9750478"	"0.6014895"	"Château des Ormes"	"attraction"
"46.1684388"	"4.4126304"	"Musée de l'école de Belleroche"	"museum"
"47.7412109"	"2.8777420"	"Les 7 Écluses"	"attraction"
"47.5952291"	"-0.1839772"	"Clocher de l'Église Saint-Médard"	"museum"
"44.4637945"	"6.2919850"	"Le Château"	"viewpoint"
"47.7118826"	"6.8093948"	"Belvédère"	"viewpoint"
"44.0443654"	"6.9772975"	"Grande Clue"	"attraction"
"47.7118783"	"6.8111552"	"Jardin Japonais"	"viewpoint"
"49.5497786"	"4.9322593"	"1940 Battle of Stonne"	"memorial"
"49.5497786"	"4.9322593"	"1940 Battle of Stonne"	"attraction"
"43.2977936"	"5.3784437"	"Mémorial de La Marseillaise"	"museum"
"43.9570416"	"5.7821033"	"La Citadelle"	"viewpoint"
"44.1991608"	"5.9438167"	"Citadelle"	"viewpoint"
"43.7351291"	"3.5288565"	"Point de vue Max Nègre"	"viewpoint"
"43.6001991"	"1.4420464"	"Fondation Bemberg"	"museum"
"46.0697945"	"4.3377798"	"Voie romaine"	"attraction"
"44.4853446"	"1.2834429"	"L'Impernal"	"viewpoint"
"48.7208655"	"5.8365494"	"Maison de la Polyculture"	"museum"
"48.8727464"	"2.3822849"	"Gallerie Jocelyn Wolf"	"museum"
"49.2542480"	"-0.2368991"	"point de vue"	"viewpoint"
"47.4208815"	"-2.4675435"	"Pointe de Merquel"	"viewpoint"
"42.5514827"	"2.5393855"	"Fours à minerai"	"ruins"
"42.5514827"	"2.5393855"	"Fours à minerai"	"attraction"
"48.4416100"	"6.9227872"	"Fontaine Jacquot"	"attraction"
"48.8909535"	"2.0179337"	"Désert de Retz"	"viewpoint"
"47.8567398"	"6.7566716"	"Musée départemental de la Montagne"	"museum"
"48.7048633"	"4.5901920"	"Calvaire"	"wayside_cross"
"48.7048633"	"4.5901920"	"Calvaire"	"attraction"
"44.5077836"	"3.2511969"	"Mikado de l'An 2000"	"attraction"
"47.8560177"	"6.7563166"	"Espace Nature Culture"	"museum"
"46.6608388"	"-0.5295355"	"Le Rocher Branlant"	"attraction"
"49.0873889"	"6.6125000"	"point de vue"	"viewpoint"
"45.1861012"	"5.7170417"	"Aconit"	"museum"
"43.9426416"	"0.5400575"	"Terrasse de Marsolan"	"viewpoint"
"45.0088138"	"5.3186128"	"Jourdan"	"viewpoint"
"47.9274098"	"6.6670673"	"Croix de Parier"	"viewpoint"
"45.8410218"	"1.8050052"	"Le Pré aux Sculptures"	"museum"
"45.8615788"	"1.7987076"	"Cascade des jarrauds"	"viewpoint"
"44.7684350"	"6.8292818"	"Pierre Fiche"	"attraction"
"45.8504939"	"5.5542004"	"La Croix"	"viewpoint"
"45.4262560"	"4.0649023"	"Musée La boule OBUT"	"museum"
"46.8055361"	"4.4242990"	"Ecomusée"	"museum"
"46.8118676"	"4.4131203"	"Fossiloscope"	"museum"
"45.9971593"	"1.8080699"	"Gorges du Thaurion"	"viewpoint"
"46.0134422"	"1.7645376"	"Mine de Charbon Abandonnée"	"viewpoint"
"44.0720121"	"6.3354225"	"Trou de Saint-Martin"	"attraction"
"45.1322923"	"5.6172833"	"Croix des Ramées"	"viewpoint"
"48.6380206"	"4.4208141"	"Croix de la Libération"	"memorial"
"48.6380206"	"4.4208141"	"Croix de la Libération"	"attraction"
"45.8882809"	"6.8522222"	"Chalet des Pyramides"	"viewpoint"
"45.0968926"	"5.7423562"	"Musée de la Chimie"	"museum"
"47.8690365"	"6.4767995"	"Chalot"	"attraction"
"47.8799745"	"6.4166561"	"Chalot"	"attraction"
"47.9547409"	"6.5576699"	"Chalot"	"attraction"
"49.2553568"	"-0.6473007"	"Musée du Chocolat"	"museum"
"47.7611225"	"6.7415978"	"Calvaire"	"wayside_cross"
"47.7611225"	"6.7415978"	"Calvaire"	"attraction"
"47.7650876"	"6.7416142"	"Calvaire"	"wayside_cross"
"47.7650876"	"6.7416142"	"Calvaire"	"attraction"
"48.8487414"	"2.3420502"	"Quartier Latin"	"attraction"
"44.9891529"	"1.0686777"	"La Roque Saint-Christophe"	"viewpoint"
"48.0480638"	"-4.1126629"	"Cascade"	"viewpoint"
"45.2028827"	"0.1343006"	"Musée du cognac"	"museum"
"48.7392236"	"4.3126371"	"Calvaire"	"wayside_cross"
"48.7392236"	"4.3126371"	"Calvaire"	"attraction"
"45.3395063"	"6.8506630"	"Pointe de Lanserlia"	"viewpoint"
"50.9529481"	"1.8542960"	"Sommet du beffroi"	"viewpoint"
"47.7230407"	"2.8550295"	"Ancienne Écluse de Rondeau"	"attraction"
"47.7929250"	"2.8699830"	"Ancienne Écluse Quadruple de Moulin Brulé"	"attraction"
"50.6414141"	"3.0570464"	"Ancien Hôtel de l'Intendance"	"attraction"
"50.6363992"	"3.0638796"	"Bâtiment dit la Grande Garde"	"attraction"
"50.6436646"	"3.0654350"	"Hôtel Bidé de la Grandville"	"attraction"
"50.6424098"	"3.0577162"	"Hôtel Cardon de Montreuil"	"attraction"
"50.6358308"	"3.0482308"	"Hôtel Castiaux"	"attraction"
"50.6336548"	"3.0587039"	"Hôtel Delbecque"	"attraction"
"50.6370979"	"3.0585289"	"Hôtel Petipas de Walle"	"attraction"
"50.6382384"	"3.0690238"	"Hôtel Scrive, actuellement siège de la Direction régionale des Affaires culturelles du Nord-Pas-de-"	"attraction"
"50.6427917"	"3.0594212"	"Hôtel Van Zeller"	"attraction"
"50.6453868"	"3.0541286"	"Hôtel de Lamissart"	"attraction"
"50.6419445"	"3.0657866"	"Hôtel de Madre"	"attraction"
"50.6417318"	"3.0589510"	"Hôtel particulier (hôtel de Tenremonde)"	"attraction"
"50.6413869"	"3.0664229"	"Hôtel particulier"	"attraction"
"50.6429907"	"3.0535538"	"Hôtel particulier"	"attraction"
"50.6287974"	"3.0675038"	"Immeuble dénommé Bains Lillois"	"attraction"
"50.6270218"	"3.0596706"	"Immeuble"	"attraction"
"50.6314871"	"3.0715982"	"Immeuble"	"attraction"
"50.6335138"	"3.0692039"	"Immeuble"	"attraction"
"50.6356780"	"3.0678570"	"Immeuble"	"attraction"
"50.6362161"	"3.0635439"	"Immeuble"	"attraction"
"50.6375308"	"3.0622952"	"Immeuble"	"attraction"
"50.6381954"	"3.0637986"	"Immeuble"	"attraction"
"50.6383721"	"3.0625401"	"Immeuble"	"attraction"
"50.6383859"	"3.0638437"	"Immeuble"	"attraction"
"50.6387702"	"3.0692835"	"Immeuble"	"attraction"
"50.6390304"	"3.0629690"	"Immeuble"	"attraction"
"50.6418952"	"3.0659146"	"Immeuble"	"attraction"
"50.6427760"	"3.0666801"	"Immeuble"	"attraction"
"50.6344610"	"3.0675759"	"Immeubles"	"attraction"
"50.6347071"	"3.0674176"	"Immeubles"	"attraction"
"50.6348240"	"3.0673353"	"Immeubles"	"attraction"
"50.6360260"	"3.0638998"	"Immeubles"	"attraction"
"50.6371679"	"3.0637993"	"Immeubles"	"attraction"
"50.6372424"	"3.0639820"	"Immeubles"	"attraction"
"50.6373087"	"3.0625466"	"Immeubles"	"attraction"
"50.6373456"	"3.0642871"	"Immeubles"	"attraction"
"50.6375631"	"3.0634715"	"Immeubles"	"attraction"
"50.6375975"	"3.0633503"	"Immeubles"	"attraction"
"50.6393533"	"3.0574092"	"Immeubles"	"attraction"
"50.6407979"	"3.0593937"	"Immeubles"	"attraction"
"50.6412294"	"3.0618189"	"Immeubles"	"attraction"
"50.6433203"	"3.0604736"	"Immeubles"	"attraction"
"50.6149122"	"3.0682409"	"Jardin des Plantes"	"attraction"
"50.6269595"	"3.0601403"	"Maison Coilliot et son décor intérieur"	"attraction"
"50.6453651"	"3.0560790"	"Maison de fond de cour"	"attraction"
"50.6363400"	"3.0598694"	"Maison"	"attraction"
"50.6363567"	"3.0599055"	"Maison"	"attraction"
"50.6368622"	"3.0595173"	"Maison"	"attraction"
"50.6370891"	"3.0593315"	"Maison"	"attraction"
"50.6371963"	"3.0566849"	"Maison"	"attraction"
"50.6373852"	"3.0580647"	"Maison"	"attraction"
"50.6373934"	"3.0577917"	"Maison"	"attraction"
"50.6374501"	"3.0582535"	"Maison"	"attraction"
"50.6383343"	"3.0640022"	"Maison"	"attraction"
"50.6388598"	"3.0585532"	"Maison"	"attraction"
"50.6391341"	"3.0585049"	"Maison"	"attraction"
"50.6392223"	"3.0632627"	"Maison"	"attraction"
"50.6422476"	"3.0660572"	"Maison"	"attraction"
"50.6423896"	"3.0662204"	"Maison"	"attraction"
"50.6425878"	"3.0664411"	"Maison"	"attraction"
"50.6439027"	"3.0615893"	"Maison"	"attraction"
"50.6441919"	"3.0636051"	"Maison"	"attraction"
"50.6442108"	"3.0636934"	"Maison"	"attraction"
"50.6360098"	"3.0591675"	"Maisons"	"attraction"
"50.6360800"	"3.0628971"	"Maisons"	"attraction"
"50.6381547"	"3.0639737"	"Maisons"	"attraction"
"50.6436837"	"3.0613783"	"Maisons"	"attraction"
"50.6438810"	"3.0603545"	"Maisons"	"attraction"
"50.6368273"	"3.0642075"	"Vieille bourse du commerce"	"attraction"
"48.8512194"	"4.4898924"	"Calvaire"	"wayside_cross"
"48.8512194"	"4.4898924"	"Calvaire"	"attraction"
"48.6459541"	"2.2208760"	"Château de Jean de Montaigu"	"attraction"
"47.2158179"	"-1.5497989"	"Musée d'histoire de Nantes"	"museum"
"45.4227903"	"5.7973098"	"Pointe du Frou"	"viewpoint"
"46.7643978"	"4.7553228"	"Acrogivry"	"attraction"
"47.6526638"	"-2.9178914"	"Croix Celtique"	"wayside_cross"
"47.6526638"	"-2.9178914"	"Croix Celtique"	"attraction"
"47.2644927"	"-2.2256007"	"Carroussel"	"attraction"
"43.3596100"	"2.1712928"	"Vue sur le château et sur la plaine du Lauragais"	"viewpoint"
"46.5611259"	"3.3188274"	"Centre National des Costumes de Scène"	"museum"
